{
"type": "FeatureCollection",
"name": "cluster0316",
"features": [
{ "type": "Feature", "properties": { "PHASE": "Not applicable", "SchoolName": "Ayesha Siddiqa Girls School", "SchoolType": "Other Independent School" }, "geometry": { "type": "Point", "coordinates": [ -0.378495562634622, 51.507509772115853 ] } },
{ "type": "Feature", "properties": { "PHASE": "Not applicable", "SchoolName": "Beis Medrash Elyon", "SchoolType": "Other Independent School" }, "geometry": { "type": "Point", "coordinates": [ -0.241628008790938, 51.579023339812885 ] } },
{ "type": "Feature", "properties": { "PHASE": "Not applicable", "SchoolName": "Big Creative Independent School", "SchoolType": "Other Independent School" }, "geometry": { "type": "Point", "coordinates": [ -0.042589725898073, 51.594019181499938 ] } },
{ "type": "Feature", "properties": { "PHASE": "Not applicable", "SchoolName": "Wetherby Senior School", "SchoolType": "Other Independent School" }, "geometry": { "type": "Point", "coordinates": [ -0.150408639858871, 51.517605570577835 ] } },
{ "type": "Feature", "properties": { "PHASE": "Primary", "SchoolName": "St Mary's Kilburn Church of England Primary School", "SchoolType": "Voluntary Aided School" }, "geometry": { "type": "Point", "coordinates": [ -0.19336724455536, 51.540378460095177 ] } },
{ "type": "Feature", "properties": { "PHASE": "Primary", "SchoolName": "De Beauvoir Primary School", "SchoolType": "Community School" }, "geometry": { "type": "Point", "coordinates": [ -0.076999792569283, 51.545345086532457 ] } },
{ "type": "Feature", "properties": { "PHASE": "Primary", "SchoolName": "Queensbridge Primary School", "SchoolType": "Community School" }, "geometry": { "type": "Point", "coordinates": [ -0.07176057259223, 51.53929703578968 ] } },
{ "type": "Feature", "properties": { "PHASE": "Primary", "SchoolName": "Princess May Primary School", "SchoolType": "Community School" }, "geometry": { "type": "Point", "coordinates": [ -0.077609315659219, 51.552782904400388 ] } },
{ "type": "Feature", "properties": { "PHASE": "Primary", "SchoolName": "Holy Trinity Church of England Primary School", "SchoolType": "Voluntary Aided School" }, "geometry": { "type": "Point", "coordinates": [ -0.073518919658, 51.542734097924082 ] } },
{ "type": "Feature", "properties": { "PHASE": "Primary", "SchoolName": "Marlborough Primary School", "SchoolType": "Community School" }, "geometry": { "type": "Point", "coordinates": [ -0.166065823408501, 51.492735398558615 ] } },
{ "type": "Feature", "properties": { "PHASE": "Primary", "SchoolName": "Rush Green Primary School", "SchoolType": "Community School" }, "geometry": { "type": "Point", "coordinates": [ 0.176705492091494, 51.563133221593631 ] } },
{ "type": "Feature", "properties": { "PHASE": "Primary", "SchoolName": "Welldon Park Primary School", "SchoolType": "Community School" }, "geometry": { "type": "Point", "coordinates": [ -0.351076617594094, 51.561296836344297 ] } },
{ "type": "Feature", "properties": { "PHASE": "Primary", "SchoolName": "Elm Park Primary School", "SchoolType": "Community School" }, "geometry": { "type": "Point", "coordinates": [ 0.203542335116118, 51.549700477981553 ] } },
{ "type": "Feature", "properties": { "PHASE": "Primary", "SchoolName": "Davies Lane Primary School", "SchoolType": "Community School" }, "geometry": { "type": "Point", "coordinates": [ 0.011864370655924, 51.564483903979564 ] } },
{ "type": "Feature", "properties": { "PHASE": "Secondary", "SchoolName": "City of London Academy (Southwark)", "SchoolType": "Academy Sponsor Led" }, "geometry": { "type": "Point", "coordinates": [ -0.065903877638335, 51.488985998922821 ] } },
{ "type": "Feature", "properties": { "PHASE": "Secondary", "SchoolName": "Rivers Academy West London", "SchoolType": "Academy Converter" }, "geometry": { "type": "Point", "coordinates": [ -0.420887514541456, 51.452929623384726 ] } },
{ "type": "Feature", "properties": { "PHASE": "Primary", "SchoolName": "Rutherford House School", "SchoolType": "Free Schools" }, "geometry": { "type": "Point", "coordinates": [ -0.155295148017738, 51.439069770827473 ] } },
{ "type": "Feature", "properties": { "PHASE": "Secondary", "SchoolName": "Eden Girls' School Waltham Forest", "SchoolType": "Free Schools" }, "geometry": { "type": "Point", "coordinates": [ -0.042589725898073, 51.594019181499938 ] } },
{ "type": "Feature", "properties": { "PHASE": "All Through", "SchoolName": "Goresbrook School", "SchoolType": "Free Schools" }, "geometry": { "type": "Point", "coordinates": [ 0.130539186771742, 51.532667760984509 ] } },
{ "type": "Feature", "properties": { "PHASE": "All Through", "SchoolName": "Goresbrook School", "SchoolType": "Free Schools" }, "geometry": { "type": "Point", "coordinates": [ 0.130539186771742, 51.532667760984509 ] } },
{ "type": "Feature", "properties": { "PHASE": "Not applicable", "SchoolName": "City of London School for Girls", "SchoolType": "Other Independent School" }, "geometry": { "type": "Point", "coordinates": [ -0.094578243441238, 51.519157885372977 ] } },
{ "type": "Feature", "properties": { "PHASE": "Not applicable", "SchoolName": "City of London School for Girls", "SchoolType": "Other Independent School" }, "geometry": { "type": "Point", "coordinates": [ -0.094578243441238, 51.519157885372977 ] } },
{ "type": "Feature", "properties": { "PHASE": "Not applicable", "SchoolName": "St Paul's Cathedral School", "SchoolType": "Other Independent School" }, "geometry": { "type": "Point", "coordinates": [ -0.096832129065506, 51.51384390967754 ] } },
{ "type": "Feature", "properties": { "PHASE": "Not applicable", "SchoolName": "St Paul's Cathedral School", "SchoolType": "Other Independent School" }, "geometry": { "type": "Point", "coordinates": [ -0.096832129065506, 51.51384390967754 ] } },
{ "type": "Feature", "properties": { "PHASE": "Not applicable", "SchoolName": "City of London School", "SchoolType": "Other Independent School" }, "geometry": { "type": "Point", "coordinates": [ -0.099525011487666, 51.511126859939338 ] } },
{ "type": "Feature", "properties": { "PHASE": "Not applicable", "SchoolName": "City of London School", "SchoolType": "Other Independent School" }, "geometry": { "type": "Point", "coordinates": [ -0.099525011487666, 51.511126859939338 ] } },
{ "type": "Feature", "properties": { "PHASE": "Not applicable", "SchoolName": "St Christopher's School", "SchoolType": "Other Independent School" }, "geometry": { "type": "Point", "coordinates": [ -0.170027068621319, 51.550996473049473 ] } },
{ "type": "Feature", "properties": { "PHASE": "Not applicable", "SchoolName": "St Margaret's School", "SchoolType": "Other Independent School" }, "geometry": { "type": "Point", "coordinates": [ -0.190339459415506, 51.557813018811565 ] } },
{ "type": "Feature", "properties": { "PHASE": "Not applicable", "SchoolName": "St Margaret's School", "SchoolType": "Other Independent School" }, "geometry": { "type": "Point", "coordinates": [ -0.190339459415506, 51.557813018811565 ] } },
{ "type": "Feature", "properties": { "PHASE": "Not applicable", "SchoolName": "Sarum Hall School", "SchoolType": "Other Independent School" }, "geometry": { "type": "Point", "coordinates": [ -0.165758832244987, 51.544868928227274 ] } },
{ "type": "Feature", "properties": { "PHASE": "Not applicable", "SchoolName": "The Hall School", "SchoolType": "Other Independent School" }, "geometry": { "type": "Point", "coordinates": [ -0.170913623161739, 51.545434995720022 ] } },
{ "type": "Feature", "properties": { "PHASE": "Not applicable", "SchoolName": "The Hall School", "SchoolType": "Other Independent School" }, "geometry": { "type": "Point", "coordinates": [ -0.170913623161739, 51.545434995720022 ] } },
{ "type": "Feature", "properties": { "PHASE": "Not applicable", "SchoolName": "University College School", "SchoolType": "Other Independent School" }, "geometry": { "type": "Point", "coordinates": [ -0.1811195277334, 51.553515972366128 ] } },
{ "type": "Feature", "properties": { "PHASE": "Not applicable", "SchoolName": "University College School", "SchoolType": "Other Independent School" }, "geometry": { "type": "Point", "coordinates": [ -0.1811195277334, 51.553515972366128 ] } },
{ "type": "Feature", "properties": { "PHASE": "Not applicable", "SchoolName": "The Cavendish School", "SchoolType": "Other Independent School" }, "geometry": { "type": "Point", "coordinates": [ -0.145113128751168, 51.53903195798248 ] } },
{ "type": "Feature", "properties": { "PHASE": "Not applicable", "SchoolName": "St Mary's School", "SchoolType": "Other Independent School" }, "geometry": { "type": "Point", "coordinates": [ -0.176319486912215, 51.550545908342343 ] } },
{ "type": "Feature", "properties": { "PHASE": "Not applicable", "SchoolName": "North Bridge House Pre-Prep School", "SchoolType": "Other Independent School" }, "geometry": { "type": "Point", "coordinates": [ -0.178942917884812, 51.548059787704616 ] } },
{ "type": "Feature", "properties": { "PHASE": "Not applicable", "SchoolName": "Hereward House School", "SchoolType": "Other Independent School" }, "geometry": { "type": "Point", "coordinates": [ -0.169932818280052, 51.545077988639186 ] } },
{ "type": "Feature", "properties": { "PHASE": "Not applicable", "SchoolName": "Hereward House School", "SchoolType": "Other Independent School" }, "geometry": { "type": "Point", "coordinates": [ -0.169932818280052, 51.545077988639186 ] } },
{ "type": "Feature", "properties": { "PHASE": "Not applicable", "SchoolName": "St Anthony's Preparatory School", "SchoolType": "Other Independent School" }, "geometry": { "type": "Point", "coordinates": [ -0.176290291665481, 51.553800706782809 ] } },
{ "type": "Feature", "properties": { "PHASE": "Not applicable", "SchoolName": "St Anthony's Preparatory School", "SchoolType": "Other Independent School" }, "geometry": { "type": "Point", "coordinates": [ -0.176290291665481, 51.553800706782809 ] } },
{ "type": "Feature", "properties": { "PHASE": "Not applicable", "SchoolName": "North Bridge Nursery School", "SchoolType": "Other Independent School" }, "geometry": { "type": "Point", "coordinates": [ -0.176297326372485, 51.548935922046475 ] } },
{ "type": "Feature", "properties": { "PHASE": "Not applicable", "SchoolName": "Lyndhurst House Preparatory School", "SchoolType": "Other Independent School" }, "geometry": { "type": "Point", "coordinates": [ -0.171459914737182, 51.552313720067829 ] } },
{ "type": "Feature", "properties": { "PHASE": "Not applicable", "SchoolName": "Lyndhurst House Preparatory School", "SchoolType": "Other Independent School" }, "geometry": { "type": "Point", "coordinates": [ -0.171459914737182, 51.552313720067829 ] } },
{ "type": "Feature", "properties": { "PHASE": "Not applicable", "SchoolName": "Hampstead Hill School", "SchoolType": "Other Independent School" }, "geometry": { "type": "Point", "coordinates": [ -0.168395522351176, 51.553192142464923 ] } },
{ "type": "Feature", "properties": { "PHASE": "Not applicable", "SchoolName": "North Bridge House Senior School", "SchoolType": "Other Independent School" }, "geometry": { "type": "Point", "coordinates": [ -0.174763347023627, 51.554469379284392 ] } },
{ "type": "Feature", "properties": { "PHASE": "Not applicable", "SchoolName": "Trevor-Roberts School", "SchoolType": "Other Independent School" }, "geometry": { "type": "Point", "coordinates": [ -0.170250279308203, 51.544354553602844 ] } },
{ "type": "Feature", "properties": { "PHASE": "Not applicable", "SchoolName": "Trevor-Roberts School", "SchoolType": "Other Independent School" }, "geometry": { "type": "Point", "coordinates": [ -0.170250279308203, 51.544354553602844 ] } },
{ "type": "Feature", "properties": { "PHASE": "Not applicable", "SchoolName": "South Hampstead High School", "SchoolType": "Other Independent School" }, "geometry": { "type": "Point", "coordinates": [ -0.17724326045151, 51.546198942345377 ] } },
{ "type": "Feature", "properties": { "PHASE": "Not applicable", "SchoolName": "South Hampstead High School", "SchoolType": "Other Independent School" }, "geometry": { "type": "Point", "coordinates": [ -0.17724326045151, 51.546198942345377 ] } },
{ "type": "Feature", "properties": { "PHASE": "Not applicable", "SchoolName": "The Village School", "SchoolType": "Other Independent School" }, "geometry": { "type": "Point", "coordinates": [ -0.15857715997626, 51.547714942457439 ] } },
{ "type": "Feature", "properties": { "PHASE": "Not applicable", "SchoolName": "Heathside Preparatory School", "SchoolType": "Other Independent School" }, "geometry": { "type": "Point", "coordinates": [ -0.176531931290386, 51.55857942943689 ] } },
{ "type": "Feature", "properties": { "PHASE": "Not applicable", "SchoolName": "Heathside Preparatory School", "SchoolType": "Other Independent School" }, "geometry": { "type": "Point", "coordinates": [ -0.176531931290386, 51.55857942943689 ] } },
{ "type": "Feature", "properties": { "PHASE": "Not applicable", "SchoolName": "Devonshire House Preparatory School", "SchoolType": "Other Independent School" }, "geometry": { "type": "Point", "coordinates": [ -0.177458284791178, 51.55345016642304 ] } },
{ "type": "Feature", "properties": { "PHASE": "Not applicable", "SchoolName": "Devonshire House Preparatory School", "SchoolType": "Other Independent School" }, "geometry": { "type": "Point", "coordinates": [ -0.177458284791178, 51.55345016642304 ] } },
{ "type": "Feature", "properties": { "PHASE": "Not applicable", "SchoolName": "Broadhurst School", "SchoolType": "Other Independent School" }, "geometry": { "type": "Point", "coordinates": [ -0.181345320178375, 51.544599002918631 ] } },
{ "type": "Feature", "properties": { "PHASE": "Not applicable", "SchoolName": "College Francais Bilingue De Londres", "SchoolType": "Other Independent School" }, "geometry": { "type": "Point", "coordinates": [ -0.145671362529992, 51.549067371494147 ] } },
{ "type": "Feature", "properties": { "PHASE": "Not applicable", "SchoolName": "College Francais Bilingue De Londres", "SchoolType": "Other Independent School" }, "geometry": { "type": "Point", "coordinates": [ -0.145671362529992, 51.549067371494147 ] } },
{ "type": "Feature", "properties": { "PHASE": "Not applicable", "SchoolName": "Fine Arts College", "SchoolType": "Other Independent School" }, "geometry": { "type": "Point", "coordinates": [ -0.162206238739741, 51.545703584798311 ] } },
{ "type": "Feature", "properties": { "PHASE": "Not applicable", "SchoolName": "Rainbow Montessori School", "SchoolType": "Other Independent School" }, "geometry": { "type": "Point", "coordinates": [ -0.19128986800294, 51.542945258193669 ] } },
{ "type": "Feature", "properties": { "PHASE": "Not applicable", "SchoolName": "Rainbow Montessori School", "SchoolType": "Other Independent School" }, "geometry": { "type": "Point", "coordinates": [ -0.19128986800294, 51.542945258193669 ] } },
{ "type": "Feature", "properties": { "PHASE": "Not applicable", "SchoolName": "The Mulberry House School", "SchoolType": "Other Independent School" }, "geometry": { "type": "Point", "coordinates": [ -0.207928763732692, 51.551104892146597 ] } },
{ "type": "Feature", "properties": { "PHASE": "Not applicable", "SchoolName": "The Phoenix School", "SchoolType": "Other Independent School" }, "geometry": { "type": "Point", "coordinates": [ -0.177349134094255, 51.545714996410787 ] } },
{ "type": "Feature", "properties": { "PHASE": "Not applicable", "SchoolName": "Southbank International School", "SchoolType": "Other Independent School" }, "geometry": { "type": "Point", "coordinates": [ -0.178893038928676, 51.549308958873617 ] } },
{ "type": "Feature", "properties": { "PHASE": "Not applicable", "SchoolName": "The Pointer School", "SchoolType": "Other Independent School" }, "geometry": { "type": "Point", "coordinates": [ 0.017451654567913, 51.47486579242306 ] } },
{ "type": "Feature", "properties": { "PHASE": "Not applicable", "SchoolName": "Blackheath Preparatory School", "SchoolType": "Other Independent School" }, "geometry": { "type": "Point", "coordinates": [ 0.015703525838493, 51.472449832825639 ] } },
{ "type": "Feature", "properties": { "PHASE": "Not applicable", "SchoolName": "Riverston School", "SchoolType": "Other Independent School" }, "geometry": { "type": "Point", "coordinates": [ 0.019801310482938, 51.455032270462837 ] } },
{ "type": "Feature", "properties": { "PHASE": "Not applicable", "SchoolName": "Riverston School", "SchoolType": "Other Independent School" }, "geometry": { "type": "Point", "coordinates": [ 0.019801310482938, 51.455032270462837 ] } },
{ "type": "Feature", "properties": { "PHASE": "Not applicable", "SchoolName": "St Olave's Preparatory School", "SchoolType": "Other Independent School" }, "geometry": { "type": "Point", "coordinates": [ 0.066009035323793, 51.43564778544814 ] } },
{ "type": "Feature", "properties": { "PHASE": "Not applicable", "SchoolName": "Colfes School", "SchoolType": "Other Independent School" }, "geometry": { "type": "Point", "coordinates": [ 0.021594510385096, 51.450334107460371 ] } },
{ "type": "Feature", "properties": { "PHASE": "Not applicable", "SchoolName": "Colfes School", "SchoolType": "Other Independent School" }, "geometry": { "type": "Point", "coordinates": [ 0.021594510385096, 51.450334107460371 ] } },
{ "type": "Feature", "properties": { "PHASE": "Not applicable", "SchoolName": "Heath House Preparatory School", "SchoolType": "Other Independent School" }, "geometry": { "type": "Point", "coordinates": [ 0.009420638672768, 51.467099086915518 ] } },
{ "type": "Feature", "properties": { "PHASE": "Not applicable", "SchoolName": "Yesodey Hatorah School", "SchoolType": "Other Independent School" }, "geometry": { "type": "Point", "coordinates": [ -0.074540451459762, 51.574215694273938 ] } },
{ "type": "Feature", "properties": { "PHASE": "Not applicable", "SchoolName": "Yesodey Hatorah School", "SchoolType": "Other Independent School" }, "geometry": { "type": "Point", "coordinates": [ -0.074540451459762, 51.574215694273938 ] } },
{ "type": "Feature", "properties": { "PHASE": "Not applicable", "SchoolName": "Talmud Torah Yetev Lev", "SchoolType": "Other Independent School" }, "geometry": { "type": "Point", "coordinates": [ -0.064381430861114, 51.56604522405592 ] } },
{ "type": "Feature", "properties": { "PHASE": "Not applicable", "SchoolName": "Talmud Torah Yetev Lev", "SchoolType": "Other Independent School" }, "geometry": { "type": "Point", "coordinates": [ -0.064381430861114, 51.56604522405592 ] } },
{ "type": "Feature", "properties": { "PHASE": "Not applicable", "SchoolName": "Bnois Jerusalem Girls School", "SchoolType": "Other Independent School" }, "geometry": { "type": "Point", "coordinates": [ -0.082260918862854, 51.574566931017003 ] } },
{ "type": "Feature", "properties": { "PHASE": "Not applicable", "SchoolName": "Bnois Jerusalem Girls School", "SchoolType": "Other Independent School" }, "geometry": { "type": "Point", "coordinates": [ -0.082260918862854, 51.574566931017003 ] } },
{ "type": "Feature", "properties": { "PHASE": "Not applicable", "SchoolName": "Beis Rochel d'Satmar Girls' School", "SchoolType": "Other Independent School" }, "geometry": { "type": "Point", "coordinates": [ -0.079968261950926, 51.574520448694187 ] } },
{ "type": "Feature", "properties": { "PHASE": "Not applicable", "SchoolName": "Beis Rochel d'Satmar Girls' School", "SchoolType": "Other Independent School" }, "geometry": { "type": "Point", "coordinates": [ -0.079968261950926, 51.574520448694187 ] } },
{ "type": "Feature", "properties": { "PHASE": "Not applicable", "SchoolName": "Talmud Torah Machzikei Hadass School", "SchoolType": "Other Independent School" }, "geometry": { "type": "Point", "coordinates": [ -0.065718678264399, 51.57261382631274 ] } },
{ "type": "Feature", "properties": { "PHASE": "Not applicable", "SchoolName": "Talmud Torah Machzikei Hadass School", "SchoolType": "Other Independent School" }, "geometry": { "type": "Point", "coordinates": [ -0.065718678264399, 51.57261382631274 ] } },
{ "type": "Feature", "properties": { "PHASE": "Not applicable", "SchoolName": "Beis Malka Girls' School", "SchoolType": "Other Independent School" }, "geometry": { "type": "Point", "coordinates": [ -0.070799635749647, 51.566789390790909 ] } },
{ "type": "Feature", "properties": { "PHASE": "Not applicable", "SchoolName": "Beis Malka Girls' School", "SchoolType": "Other Independent School" }, "geometry": { "type": "Point", "coordinates": [ -0.070799635749647, 51.566789390790909 ] } },
{ "type": "Feature", "properties": { "PHASE": "Not applicable", "SchoolName": "Talmud Torah Chaim Meirim Wiznitz School", "SchoolType": "Other Independent School" }, "geometry": { "type": "Point", "coordinates": [ -0.070350322699056, 51.567177673226645 ] } },
{ "type": "Feature", "properties": { "PHASE": "Not applicable", "SchoolName": "Talmud Torah Chaim Meirim Wiznitz School", "SchoolType": "Other Independent School" }, "geometry": { "type": "Point", "coordinates": [ -0.070350322699056, 51.567177673226645 ] } },
{ "type": "Feature", "properties": { "PHASE": "Not applicable", "SchoolName": "Talmud Torah Bobov Primary School", "SchoolType": "Other Independent School" }, "geometry": { "type": "Point", "coordinates": [ -0.068362376128112, 51.574249047859396 ] } },
{ "type": "Feature", "properties": { "PHASE": "Not applicable", "SchoolName": "Talmud Torah Bobov Primary School", "SchoolType": "Other Independent School" }, "geometry": { "type": "Point", "coordinates": [ -0.068362376128112, 51.574249047859396 ] } },
{ "type": "Feature", "properties": { "PHASE": "Not applicable", "SchoolName": "T T T Y Y School", "SchoolType": "Other Independent School" }, "geometry": { "type": "Point", "coordinates": [ -0.081524960591609, 51.568053328803529 ] } },
{ "type": "Feature", "properties": { "PHASE": "Not applicable", "SchoolName": "T T T Y Y School", "SchoolType": "Other Independent School" }, "geometry": { "type": "Point", "coordinates": [ -0.081524960591609, 51.568053328803529 ] } },
{ "type": "Feature", "properties": { "PHASE": "Not applicable", "SchoolName": "Tayyibah Girls' School", "SchoolType": "Other Independent School" }, "geometry": { "type": "Point", "coordinates": [ -0.061408449241783, 51.567416962705629 ] } },
{ "type": "Feature", "properties": { "PHASE": "Not applicable", "SchoolName": "Tayyibah Girls' School", "SchoolType": "Other Independent School" }, "geometry": { "type": "Point", "coordinates": [ -0.061408449241783, 51.567416962705629 ] } },
{ "type": "Feature", "properties": { "PHASE": "Not applicable", "SchoolName": "Paragon Christian Academy", "SchoolType": "Other Independent School" }, "geometry": { "type": "Point", "coordinates": [ -0.042974745625503, 51.555492588514163 ] } },
{ "type": "Feature", "properties": { "PHASE": "Not applicable", "SchoolName": "Paragon Christian Academy", "SchoolType": "Other Independent School" }, "geometry": { "type": "Point", "coordinates": [ -0.042974745625503, 51.555492588514163 ] } },
{ "type": "Feature", "properties": { "PHASE": "Not applicable", "SchoolName": "River House Montessori School", "SchoolType": "Other Independent School" }, "geometry": { "type": "Point", "coordinates": [ -0.018430827210741, 51.499515165119959 ] } },
{ "type": "Feature", "properties": { "PHASE": "Not applicable", "SchoolName": "River House Montessori School", "SchoolType": "Other Independent School" }, "geometry": { "type": "Point", "coordinates": [ -0.018430827210741, 51.499515165119959 ] } },
{ "type": "Feature", "properties": { "PHASE": "Not applicable", "SchoolName": "St Paul's Girls' School", "SchoolType": "Other Independent School" }, "geometry": { "type": "Point", "coordinates": [ -0.218868589196514, 51.495149883259337 ] } },
{ "type": "Feature", "properties": { "PHASE": "Not applicable", "SchoolName": "St Paul's Girls' School", "SchoolType": "Other Independent School" }, "geometry": { "type": "Point", "coordinates": [ -0.218868589196514, 51.495149883259337 ] } },
{ "type": "Feature", "properties": { "PHASE": "Not applicable", "SchoolName": "Bute House Preparatory School", "SchoolType": "Other Independent School" }, "geometry": { "type": "Point", "coordinates": [ -0.221824077922333, 51.495833194541916 ] } },
{ "type": "Feature", "properties": { "PHASE": "Not applicable", "SchoolName": "The Godolphin and Latymer School", "SchoolType": "Other Independent School" }, "geometry": { "type": "Point", "coordinates": [ -0.229968541156385, 51.495335918079441 ] } },
{ "type": "Feature", "properties": { "PHASE": "Not applicable", "SchoolName": "Latymer Upper School", "SchoolType": "Other Independent School" }, "geometry": { "type": "Point", "coordinates": [ -0.237476332415956, 51.493039018274004 ] } },
{ "type": "Feature", "properties": { "PHASE": "Not applicable", "SchoolName": "Latymer Upper School", "SchoolType": "Other Independent School" }, "geometry": { "type": "Point", "coordinates": [ -0.237476332415956, 51.493039018274004 ] } },
{ "type": "Feature", "properties": { "PHASE": "Not applicable", "SchoolName": "Ecole Française de Londres Jacques Prévert", "SchoolType": "Other Independent School" }, "geometry": { "type": "Point", "coordinates": [ -0.217860457563889, 51.495880941252999 ] } },
{ "type": "Feature", "properties": { "PHASE": "Not applicable", "SchoolName": "Al-Muntada Islamic School", "SchoolType": "Other Independent School" }, "geometry": { "type": "Point", "coordinates": [ -0.20163071659825, 51.476317362722668 ] } },
{ "type": "Feature", "properties": { "PHASE": "Not applicable", "SchoolName": "Ravenscourt Park Preparatory School", "SchoolType": "Other Independent School" }, "geometry": { "type": "Point", "coordinates": [ -0.238457651134016, 51.494114868002647 ] } },
{ "type": "Feature", "properties": { "PHASE": "Not applicable", "SchoolName": "Sinclair House School", "SchoolType": "Other Independent School" }, "geometry": { "type": "Point", "coordinates": [ -0.210718423457054, 51.477760293106961 ] } },
{ "type": "Feature", "properties": { "PHASE": "Not applicable", "SchoolName": "Sinclair House School", "SchoolType": "Other Independent School" }, "geometry": { "type": "Point", "coordinates": [ -0.210718423457054, 51.477760293106961 ] } },
{ "type": "Feature", "properties": { "PHASE": "Not applicable", "SchoolName": "L'Ecole des Petits School", "SchoolType": "Other Independent School" }, "geometry": { "type": "Point", "coordinates": [ -0.191041297875628, 51.472080875914834 ] } },
{ "type": "Feature", "properties": { "PHASE": "Not applicable", "SchoolName": "Le Herisson School", "SchoolType": "Other Independent School" }, "geometry": { "type": "Point", "coordinates": [ -0.236018925461951, 51.492729349131039 ] } },
{ "type": "Feature", "properties": { "PHASE": "Not applicable", "SchoolName": "Italia Conti Academy of Theatre Arts", "SchoolType": "Other Independent School" }, "geometry": { "type": "Point", "coordinates": [ -0.097865494374499, 51.522250719084717 ] } },
{ "type": "Feature", "properties": { "PHASE": "Not applicable", "SchoolName": "Italia Conti Academy of Theatre Arts", "SchoolType": "Other Independent School" }, "geometry": { "type": "Point", "coordinates": [ -0.097865494374499, 51.522250719084717 ] } },
{ "type": "Feature", "properties": { "PHASE": "Not applicable", "SchoolName": "Dallington School", "SchoolType": "Other Independent School" }, "geometry": { "type": "Point", "coordinates": [ -0.10050451740545, 51.524649528773679 ] } },
{ "type": "Feature", "properties": { "PHASE": "Not applicable", "SchoolName": "Charterhouse Square School", "SchoolType": "Other Independent School" }, "geometry": { "type": "Point", "coordinates": [ -0.098894457040284, 51.520387959191943 ] } },
{ "type": "Feature", "properties": { "PHASE": "Not applicable", "SchoolName": "Redcliffe School", "SchoolType": "Other Independent School" }, "geometry": { "type": "Point", "coordinates": [ -0.186566219015225, 51.486165946502837 ] } },
{ "type": "Feature", "properties": { "PHASE": "Not applicable", "SchoolName": "Glendower Preparatory School", "SchoolType": "Other Independent School" }, "geometry": { "type": "Point", "coordinates": [ -0.179168348308724, 51.493982691603804 ] } },
{ "type": "Feature", "properties": { "PHASE": "Not applicable", "SchoolName": "Kensington Prep School", "SchoolType": "Other Independent School" }, "geometry": { "type": "Point", "coordinates": [ -0.202237352502882, 51.477369793388938 ] } },
{ "type": "Feature", "properties": { "PHASE": "Not applicable", "SchoolName": "Norland Place School", "SchoolType": "Other Independent School" }, "geometry": { "type": "Point", "coordinates": [ -0.211695058359215, 51.506173362529502 ] } },
{ "type": "Feature", "properties": { "PHASE": "Not applicable", "SchoolName": "Queen's Gate School", "SchoolType": "Other Independent School" }, "geometry": { "type": "Point", "coordinates": [ -0.178374499905628, 51.494743717711991 ] } },
{ "type": "Feature", "properties": { "PHASE": "Not applicable", "SchoolName": "Queen's Gate School", "SchoolType": "Other Independent School" }, "geometry": { "type": "Point", "coordinates": [ -0.178374499905628, 51.494743717711991 ] } },
{ "type": "Feature", "properties": { "PHASE": "Not applicable", "SchoolName": "Bassett House School", "SchoolType": "Other Independent School" }, "geometry": { "type": "Point", "coordinates": [ -0.217619901307184, 51.518295405668553 ] } },
{ "type": "Feature", "properties": { "PHASE": "Not applicable", "SchoolName": "Sussex House School", "SchoolType": "Other Independent School" }, "geometry": { "type": "Point", "coordinates": [ -0.161483447075621, 51.494561069159587 ] } },
{ "type": "Feature", "properties": { "PHASE": "Not applicable", "SchoolName": "Sussex House School", "SchoolType": "Other Independent School" }, "geometry": { "type": "Point", "coordinates": [ -0.161483447075621, 51.494561069159587 ] } },
{ "type": "Feature", "properties": { "PHASE": "Not applicable", "SchoolName": "St Philip's School", "SchoolType": "Other Independent School" }, "geometry": { "type": "Point", "coordinates": [ -0.182716139420487, 51.492796758590742 ] } },
{ "type": "Feature", "properties": { "PHASE": "Not applicable", "SchoolName": "St Philip's School", "SchoolType": "Other Independent School" }, "geometry": { "type": "Point", "coordinates": [ -0.182716139420487, 51.492796758590742 ] } },
{ "type": "Feature", "properties": { "PHASE": "Not applicable", "SchoolName": "Hill House School", "SchoolType": "Other Independent School" }, "geometry": { "type": "Point", "coordinates": [ -0.160380790217183, 51.497259514666219 ] } },
{ "type": "Feature", "properties": { "PHASE": "Not applicable", "SchoolName": "Hill House School", "SchoolType": "Other Independent School" }, "geometry": { "type": "Point", "coordinates": [ -0.160380790217183, 51.497259514666219 ] } },
{ "type": "Feature", "properties": { "PHASE": "Not applicable", "SchoolName": "Wetherby School", "SchoolType": "Other Independent School" }, "geometry": { "type": "Point", "coordinates": [ -0.195686669466132, 51.511260712490007 ] } },
{ "type": "Feature", "properties": { "PHASE": "Not applicable", "SchoolName": "Falkner House", "SchoolType": "Other Independent School" }, "geometry": { "type": "Point", "coordinates": [ -0.181296591065791, 51.491183082186694 ] } },
{ "type": "Feature", "properties": { "PHASE": "Not applicable", "SchoolName": "More House School", "SchoolType": "Other Independent School" }, "geometry": { "type": "Point", "coordinates": [ -0.15974402751286, 51.497330456902404 ] } },
{ "type": "Feature", "properties": { "PHASE": "Not applicable", "SchoolName": "Garden House School", "SchoolType": "Other Independent School" }, "geometry": { "type": "Point", "coordinates": [ -0.157887229583528, 51.48978356622699 ] } },
{ "type": "Feature", "properties": { "PHASE": "Not applicable", "SchoolName": "The Falcons School for Boys", "SchoolType": "Other Independent School" }, "geometry": { "type": "Point", "coordinates": [ -0.273116605936143, 51.487670210812851 ] } },
{ "type": "Feature", "properties": { "PHASE": "Not applicable", "SchoolName": "The Falcons School for Boys", "SchoolType": "Other Independent School" }, "geometry": { "type": "Point", "coordinates": [ -0.273116605936143, 51.487670210812851 ] } },
{ "type": "Feature", "properties": { "PHASE": "Not applicable", "SchoolName": "Eaton House The Vale school", "SchoolType": "Other Independent School" }, "geometry": { "type": "Point", "coordinates": [ -0.18299908537876, 51.497998796548416 ] } },
{ "type": "Feature", "properties": { "PHASE": "Not applicable", "SchoolName": "Duff Miller College", "SchoolType": "Other Independent School" }, "geometry": { "type": "Point", "coordinates": [ -0.179706871253569, 51.496014360982649 ] } },
{ "type": "Feature", "properties": { "PHASE": "Not applicable", "SchoolName": "St James Senior Girls' School", "SchoolType": "Other Independent School" }, "geometry": { "type": "Point", "coordinates": [ -0.209370048622322, 51.49490632608601 ] } },
{ "type": "Feature", "properties": { "PHASE": "Not applicable", "SchoolName": "St James Senior Girls' School", "SchoolType": "Other Independent School" }, "geometry": { "type": "Point", "coordinates": [ -0.209370048622322, 51.49490632608601 ] } },
{ "type": "Feature", "properties": { "PHASE": "Not applicable", "SchoolName": "St James Senior Boys' School", "SchoolType": "Other Independent School" }, "geometry": { "type": "Point", "coordinates": [ -0.468273872154196, 51.438550154753031 ] } },
{ "type": "Feature", "properties": { "PHASE": "Not applicable", "SchoolName": "St James Senior Boys' School", "SchoolType": "Other Independent School" }, "geometry": { "type": "Point", "coordinates": [ -0.468273872154196, 51.438550154753031 ] } },
{ "type": "Feature", "properties": { "PHASE": "Not applicable", "SchoolName": "DLD College London", "SchoolType": "Other Independent School" }, "geometry": { "type": "Point", "coordinates": [ -0.116125416204119, 51.500333840159009 ] } },
{ "type": "Feature", "properties": { "PHASE": "Not applicable", "SchoolName": "Thomas's Battersea", "SchoolType": "Other Independent School" }, "geometry": { "type": "Point", "coordinates": [ -0.174320314095177, 51.47433962649469 ] } },
{ "type": "Feature", "properties": { "PHASE": "Not applicable", "SchoolName": "Thomas's Battersea", "SchoolType": "Other Independent School" }, "geometry": { "type": "Point", "coordinates": [ -0.174320314095177, 51.47433962649469 ] } },
{ "type": "Feature", "properties": { "PHASE": "Not applicable", "SchoolName": "Pembridge Hall School", "SchoolType": "Other Independent School" }, "geometry": { "type": "Point", "coordinates": [ -0.193514557482177, 51.511524029365816 ] } },
{ "type": "Feature", "properties": { "PHASE": "Not applicable", "SchoolName": "Instituto Espanol Canada Blanch", "SchoolType": "Other Independent School" }, "geometry": { "type": "Point", "coordinates": [ -0.208861780037922, 51.52036514282598 ] } },
{ "type": "Feature", "properties": { "PHASE": "Not applicable", "SchoolName": "Instituto Espanol Canada Blanch", "SchoolType": "Other Independent School" }, "geometry": { "type": "Point", "coordinates": [ -0.208861780037922, 51.52036514282598 ] } },
{ "type": "Feature", "properties": { "PHASE": "Not applicable", "SchoolName": "Knightsbridge School", "SchoolType": "Other Independent School" }, "geometry": { "type": "Point", "coordinates": [ -0.162918901000725, 51.496480981619541 ] } },
{ "type": "Feature", "properties": { "PHASE": "Not applicable", "SchoolName": "Knightsbridge School", "SchoolType": "Other Independent School" }, "geometry": { "type": "Point", "coordinates": [ -0.162918901000725, 51.496480981619541 ] } },
{ "type": "Feature", "properties": { "PHASE": "Not applicable", "SchoolName": "Thomas's Kensington", "SchoolType": "Other Independent School" }, "geometry": { "type": "Point", "coordinates": [ -0.188052106157008, 51.498823348359913 ] } },
{ "type": "Feature", "properties": { "PHASE": "Not applicable", "SchoolName": "Lansdowne College", "SchoolType": "Other Independent School" }, "geometry": { "type": "Point", "coordinates": [ -0.189707488324901, 51.511222537630772 ] } },
{ "type": "Feature", "properties": { "PHASE": "Not applicable", "SchoolName": "Ashbourne Independent School", "SchoolType": "Other Independent School" }, "geometry": { "type": "Point", "coordinates": [ -0.189468056758962, 51.502720968749486 ] } },
{ "type": "Feature", "properties": { "PHASE": "Not applicable", "SchoolName": "Cameron House School", "SchoolType": "Other Independent School" }, "geometry": { "type": "Point", "coordinates": [ -0.175181201971295, 51.485602658854823 ] } },
{ "type": "Feature", "properties": { "PHASE": "Not applicable", "SchoolName": "Collingham", "SchoolType": "Other Independent School" }, "geometry": { "type": "Point", "coordinates": [ -0.188398254883733, 51.492273181612539 ] } },
{ "type": "Feature", "properties": { "PHASE": "Not applicable", "SchoolName": "Mander Portman Woodward School", "SchoolType": "Other Independent School" }, "geometry": { "type": "Point", "coordinates": [ -0.17918983331537, 51.493443476382517 ] } },
{ "type": "Feature", "properties": { "PHASE": "Not applicable", "SchoolName": "Portland Place School", "SchoolType": "Other Independent School" }, "geometry": { "type": "Point", "coordinates": [ -0.144944367648652, 51.520837509531539 ] } },
{ "type": "Feature", "properties": { "PHASE": "Not applicable", "SchoolName": "Portland Place School", "SchoolType": "Other Independent School" }, "geometry": { "type": "Point", "coordinates": [ -0.144944367648652, 51.520837509531539 ] } },
{ "type": "Feature", "properties": { "PHASE": "Not applicable", "SchoolName": "Southbank International School", "SchoolType": "Other Independent School" }, "geometry": { "type": "Point", "coordinates": [ -0.198676640024102, 51.510722159559535 ] } },
{ "type": "Feature", "properties": { "PHASE": "Not applicable", "SchoolName": "Southbank International School", "SchoolType": "Other Independent School" }, "geometry": { "type": "Point", "coordinates": [ -0.198676640024102, 51.510722159559535 ] } },
{ "type": "Feature", "properties": { "PHASE": "Not applicable", "SchoolName": "St Nicholas Preparatory School", "SchoolType": "Other Independent School" }, "geometry": { "type": "Point", "coordinates": [ -0.173354706013121, 51.501392020437301 ] } },
{ "type": "Feature", "properties": { "PHASE": "Not applicable", "SchoolName": "David Game College", "SchoolType": "Other Independent School" }, "geometry": { "type": "Point", "coordinates": [ -0.196546179326602, 51.508836978199895 ] } },
{ "type": "Feature", "properties": { "PHASE": "Not applicable", "SchoolName": "La Petite Ecole Francaise", "SchoolType": "Other Independent School" }, "geometry": { "type": "Point", "coordinates": [ -0.216944333179246, 51.519723924428959 ] } },
{ "type": "Feature", "properties": { "PHASE": "Not applicable", "SchoolName": "Lycee Francais Charles de Gaulle", "SchoolType": "Other Independent School" }, "geometry": { "type": "Point", "coordinates": [ -0.176795578741448, 51.495321679021252 ] } },
{ "type": "Feature", "properties": { "PHASE": "Not applicable", "SchoolName": "Lycee Francais Charles de Gaulle", "SchoolType": "Other Independent School" }, "geometry": { "type": "Point", "coordinates": [ -0.176795578741448, 51.495321679021252 ] } },
{ "type": "Feature", "properties": { "PHASE": "Not applicable", "SchoolName": "Oakfield Preparatory School", "SchoolType": "Other Independent School" }, "geometry": { "type": "Point", "coordinates": [ -0.093149163961371, 51.440827054809731 ] } },
{ "type": "Feature", "properties": { "PHASE": "Not applicable", "SchoolName": "Rosemead Preparatory School", "SchoolType": "Other Independent School" }, "geometry": { "type": "Point", "coordinates": [ -0.098885251105229, 51.439220613066659 ] } },
{ "type": "Feature", "properties": { "PHASE": "Not applicable", "SchoolName": "Streatham and Clapham High School", "SchoolType": "Other Independent School" }, "geometry": { "type": "Point", "coordinates": [ -0.138153623326931, 51.435291644684419 ] } },
{ "type": "Feature", "properties": { "PHASE": "Not applicable", "SchoolName": "Streatham and Clapham High School", "SchoolType": "Other Independent School" }, "geometry": { "type": "Point", "coordinates": [ -0.138153623326931, 51.435291644684419 ] } },
{ "type": "Feature", "properties": { "PHASE": "Not applicable", "SchoolName": "The White House Preparatory School & Woodentops K*", "SchoolType": "Other Independent School" }, "geometry": { "type": "Point", "coordinates": [ -0.135536973736422, 51.445492637829545 ] } },
{ "type": "Feature", "properties": { "PHASE": "Not applicable", "SchoolName": "St Dunstan's College", "SchoolType": "Other Independent School" }, "geometry": { "type": "Point", "coordinates": [ -0.028757137471493, 51.443826586067139 ] } },
{ "type": "Feature", "properties": { "PHASE": "Not applicable", "SchoolName": "St Dunstan's College", "SchoolType": "Other Independent School" }, "geometry": { "type": "Point", "coordinates": [ -0.028757137471493, 51.443826586067139 ] } },
{ "type": "Feature", "properties": { "PHASE": "Not applicable", "SchoolName": "Blackheath High School", "SchoolType": "Other Independent School" }, "geometry": { "type": "Point", "coordinates": [ 0.015769063328368, 51.477529605857363 ] } },
{ "type": "Feature", "properties": { "PHASE": "Not applicable", "SchoolName": "Blackheath High School", "SchoolType": "Other Independent School" }, "geometry": { "type": "Point", "coordinates": [ 0.015769063328368, 51.477529605857363 ] } },
{ "type": "Feature", "properties": { "PHASE": "Not applicable", "SchoolName": "Sydenham High School GDST", "SchoolType": "Other Independent School" }, "geometry": { "type": "Point", "coordinates": [ -0.064277010692472, 51.426361180521198 ] } },
{ "type": "Feature", "properties": { "PHASE": "Not applicable", "SchoolName": "Sydenham High School GDST", "SchoolType": "Other Independent School" }, "geometry": { "type": "Point", "coordinates": [ -0.064277010692472, 51.426361180521198 ] } },
{ "type": "Feature", "properties": { "PHASE": "Not applicable", "SchoolName": "Dulwich College", "SchoolType": "Other Independent School" }, "geometry": { "type": "Point", "coordinates": [ -0.085056040344135, 51.440290453147298 ] } },
{ "type": "Feature", "properties": { "PHASE": "Not applicable", "SchoolName": "Dulwich College", "SchoolType": "Other Independent School" }, "geometry": { "type": "Point", "coordinates": [ -0.085056040344135, 51.440290453147298 ] } },
{ "type": "Feature", "properties": { "PHASE": "Not applicable", "SchoolName": "Dulwich Prep London", "SchoolType": "Other Independent School" }, "geometry": { "type": "Point", "coordinates": [ -0.085238198022499, 51.434214381479741 ] } },
{ "type": "Feature", "properties": { "PHASE": "Not applicable", "SchoolName": "Dulwich Prep London", "SchoolType": "Other Independent School" }, "geometry": { "type": "Point", "coordinates": [ -0.085238198022499, 51.434214381479741 ] } },
{ "type": "Feature", "properties": { "PHASE": "Not applicable", "SchoolName": "James Allen's Girls' School", "SchoolType": "Other Independent School" }, "geometry": { "type": "Point", "coordinates": [ -0.085711527532223, 51.454896243763081 ] } },
{ "type": "Feature", "properties": { "PHASE": "Not applicable", "SchoolName": "James Allen's Girls' School", "SchoolType": "Other Independent School" }, "geometry": { "type": "Point", "coordinates": [ -0.085711527532223, 51.454896243763081 ] } },
{ "type": "Feature", "properties": { "PHASE": "Not applicable", "SchoolName": "Alleyn's School", "SchoolType": "Other Independent School" }, "geometry": { "type": "Point", "coordinates": [ -0.082031135203075, 51.454791126550589 ] } },
{ "type": "Feature", "properties": { "PHASE": "Not applicable", "SchoolName": "Alleyn's School", "SchoolType": "Other Independent School" }, "geometry": { "type": "Point", "coordinates": [ -0.082031135203075, 51.454791126550589 ] } },
{ "type": "Feature", "properties": { "PHASE": "Not applicable", "SchoolName": "Herne Hill School", "SchoolType": "Other Independent School" }, "geometry": { "type": "Point", "coordinates": [ -0.098918083630544, 51.454715470914266 ] } },
{ "type": "Feature", "properties": { "PHASE": "Not applicable", "SchoolName": "Gatehouse School", "SchoolType": "Other Independent School" }, "geometry": { "type": "Point", "coordinates": [ -0.046715587386733, 51.532147258454721 ] } },
{ "type": "Feature", "properties": { "PHASE": "Not applicable", "SchoolName": "Madani Secondary Girls' School", "SchoolType": "Other Independent School" }, "geometry": { "type": "Point", "coordinates": [ -0.062828772842575, 51.51565228500057 ] } },
{ "type": "Feature", "properties": { "PHASE": "Not applicable", "SchoolName": "Ibstock Place School", "SchoolType": "Other Independent School" }, "geometry": { "type": "Point", "coordinates": [ -0.25244563642666, 51.45455059431476 ] } },
{ "type": "Feature", "properties": { "PHASE": "Not applicable", "SchoolName": "Ibstock Place School", "SchoolType": "Other Independent School" }, "geometry": { "type": "Point", "coordinates": [ -0.25244563642666, 51.45455059431476 ] } },
{ "type": "Feature", "properties": { "PHASE": "Not applicable", "SchoolName": "Merlin School", "SchoolType": "Other Independent School" }, "geometry": { "type": "Point", "coordinates": [ -0.21657267229842, 51.457256689410883 ] } },
{ "type": "Feature", "properties": { "PHASE": "Not applicable", "SchoolName": "Hurlingham School", "SchoolType": "Other Independent School" }, "geometry": { "type": "Point", "coordinates": [ -0.209047324364944, 51.463068035671697 ] } },
{ "type": "Feature", "properties": { "PHASE": "Not applicable", "SchoolName": "Willington School", "SchoolType": "Other Independent School" }, "geometry": { "type": "Point", "coordinates": [ -0.20513300714253, 51.424493178446944 ] } },
{ "type": "Feature", "properties": { "PHASE": "Not applicable", "SchoolName": "Willington School", "SchoolType": "Other Independent School" }, "geometry": { "type": "Point", "coordinates": [ -0.20513300714253, 51.424493178446944 ] } },
{ "type": "Feature", "properties": { "PHASE": "Not applicable", "SchoolName": "Emanuel School", "SchoolType": "Other Independent School" }, "geometry": { "type": "Point", "coordinates": [ -0.172889838633388, 51.456440186752616 ] } },
{ "type": "Feature", "properties": { "PHASE": "Not applicable", "SchoolName": "Emanuel School", "SchoolType": "Other Independent School" }, "geometry": { "type": "Point", "coordinates": [ -0.172889838633388, 51.456440186752616 ] } },
{ "type": "Feature", "properties": { "PHASE": "Not applicable", "SchoolName": "Putney High School", "SchoolType": "Other Independent School" }, "geometry": { "type": "Point", "coordinates": [ -0.21809962143186, 51.456857259228805 ] } },
{ "type": "Feature", "properties": { "PHASE": "Not applicable", "SchoolName": "Putney High School", "SchoolType": "Other Independent School" }, "geometry": { "type": "Point", "coordinates": [ -0.21809962143186, 51.456857259228805 ] } },
{ "type": "Feature", "properties": { "PHASE": "Not applicable", "SchoolName": "London Steiner School", "SchoolType": "Other Independent School" }, "geometry": { "type": "Point", "coordinates": [ -0.143642797735155, 51.446106877389987 ] } },
{ "type": "Feature", "properties": { "PHASE": "Not applicable", "SchoolName": "London Steiner School", "SchoolType": "Other Independent School" }, "geometry": { "type": "Point", "coordinates": [ -0.143642797735155, 51.446106877389987 ] } },
{ "type": "Feature", "properties": { "PHASE": "Not applicable", "SchoolName": "Broomwood Hall School", "SchoolType": "Other Independent School" }, "geometry": { "type": "Point", "coordinates": [ -0.158858179048259, 51.450294570460535 ] } },
{ "type": "Feature", "properties": { "PHASE": "Not applicable", "SchoolName": "Broomwood Hall School", "SchoolType": "Other Independent School" }, "geometry": { "type": "Point", "coordinates": [ -0.158858179048259, 51.450294570460535 ] } },
{ "type": "Feature", "properties": { "PHASE": "Not applicable", "SchoolName": "The Roche School", "SchoolType": "Other Independent School" }, "geometry": { "type": "Point", "coordinates": [ -0.197654844117628, 51.459179554611843 ] } },
{ "type": "Feature", "properties": { "PHASE": "Not applicable", "SchoolName": "Finton House School", "SchoolType": "Other Independent School" }, "geometry": { "type": "Point", "coordinates": [ -0.165720596353231, 51.441022892906588 ] } },
{ "type": "Feature", "properties": { "PHASE": "Not applicable", "SchoolName": "The Dominie School Limited", "SchoolType": "Other Independent Special School" }, "geometry": { "type": "Point", "coordinates": [ -0.15756263054214, 51.474608072154695 ] } },
{ "type": "Feature", "properties": { "PHASE": "Not applicable", "SchoolName": "The Dominie School Limited", "SchoolType": "Other Independent Special School" }, "geometry": { "type": "Point", "coordinates": [ -0.15756263054214, 51.474608072154695 ] } },
{ "type": "Feature", "properties": { "PHASE": "Not applicable", "SchoolName": "Hornsby House School", "SchoolType": "Other Independent School" }, "geometry": { "type": "Point", "coordinates": [ -0.156575956068352, 51.444782226471609 ] } },
{ "type": "Feature", "properties": { "PHASE": "Not applicable", "SchoolName": "Bertrum House School", "SchoolType": "Other Independent School" }, "geometry": { "type": "Point", "coordinates": [ -0.158448556261859, 51.437581620314745 ] } },
{ "type": "Feature", "properties": { "PHASE": "Not applicable", "SchoolName": "Eveline Day School", "SchoolType": "Other Independent School" }, "geometry": { "type": "Point", "coordinates": [ -0.154838197490591, 51.440411467559791 ] } },
{ "type": "Feature", "properties": { "PHASE": "Not applicable", "SchoolName": "Prospect House School", "SchoolType": "Other Independent School" }, "geometry": { "type": "Point", "coordinates": [ -0.220792689805285, 51.451268854969115 ] } },
{ "type": "Feature", "properties": { "PHASE": "Not applicable", "SchoolName": "Newton Preparatory School", "SchoolType": "Other Independent School" }, "geometry": { "type": "Point", "coordinates": [ -0.145743345432008, 51.477020607471829 ] } },
{ "type": "Feature", "properties": { "PHASE": "Not applicable", "SchoolName": "Newton Preparatory School", "SchoolType": "Other Independent School" }, "geometry": { "type": "Point", "coordinates": [ -0.145743345432008, 51.477020607471829 ] } },
{ "type": "Feature", "properties": { "PHASE": "Not applicable", "SchoolName": "Dolphin School (Incorporating Noahs Ark Nursery S*", "SchoolType": "Other Independent School" }, "geometry": { "type": "Point", "coordinates": [ -0.166109384513251, 51.457179621719511 ] } },
{ "type": "Feature", "properties": { "PHASE": "Not applicable", "SchoolName": "Hall School Wimbledon", "SchoolType": "Other Independent School" }, "geometry": { "type": "Point", "coordinates": [ -0.243492277110166, 51.436566715351226 ] } },
{ "type": "Feature", "properties": { "PHASE": "Not applicable", "SchoolName": "Hall School Wimbledon", "SchoolType": "Other Independent School" }, "geometry": { "type": "Point", "coordinates": [ -0.243492277110166, 51.436566715351226 ] } },
{ "type": "Feature", "properties": { "PHASE": "Not applicable", "SchoolName": "Lion House School", "SchoolType": "Other Independent School" }, "geometry": { "type": "Point", "coordinates": [ -0.222338363422491, 51.461867472738788 ] } },
{ "type": "Feature", "properties": { "PHASE": "Not applicable", "SchoolName": "Eaton House the Manor School", "SchoolType": "Other Independent School" }, "geometry": { "type": "Point", "coordinates": [ -0.151071397112569, 51.461709490416339 ] } },
{ "type": "Feature", "properties": { "PHASE": "Not applicable", "SchoolName": "Eaton House the Manor School", "SchoolType": "Other Independent School" }, "geometry": { "type": "Point", "coordinates": [ -0.151071397112569, 51.461709490416339 ] } },
{ "type": "Feature", "properties": { "PHASE": "Not applicable", "SchoolName": "Northcote Lodge School", "SchoolType": "Other Independent School" }, "geometry": { "type": "Point", "coordinates": [ -0.165266812387453, 51.451986725554988 ] } },
{ "type": "Feature", "properties": { "PHASE": "Not applicable", "SchoolName": "Northcote Lodge School", "SchoolType": "Other Independent School" }, "geometry": { "type": "Point", "coordinates": [ -0.165266812387453, 51.451986725554988 ] } },
{ "type": "Feature", "properties": { "PHASE": "Not applicable", "SchoolName": "Al-Risalah", "SchoolType": "Other Independent School" }, "geometry": { "type": "Point", "coordinates": [ -0.163488625130322, 51.432453984062334 ] } },
{ "type": "Feature", "properties": { "PHASE": "Not applicable", "SchoolName": "Al-Risalah", "SchoolType": "Other Independent School" }, "geometry": { "type": "Point", "coordinates": [ -0.163488625130322, 51.432453984062334 ] } },
{ "type": "Feature", "properties": { "PHASE": "Not applicable", "SchoolName": "Parkgate House School", "SchoolType": "Other Independent School" }, "geometry": { "type": "Point", "coordinates": [ -0.154112774661006, 51.461613531913621 ] } },
{ "type": "Feature", "properties": { "PHASE": "Not applicable", "SchoolName": "Arnold House School", "SchoolType": "Other Independent School" }, "geometry": { "type": "Point", "coordinates": [ -0.176723565296697, 51.533943182362997 ] } },
{ "type": "Feature", "properties": { "PHASE": "Not applicable", "SchoolName": "Arnold House School", "SchoolType": "Other Independent School" }, "geometry": { "type": "Point", "coordinates": [ -0.176723565296697, 51.533943182362997 ] } },
{ "type": "Feature", "properties": { "PHASE": "Not applicable", "SchoolName": "Queen's College London", "SchoolType": "Other Independent School" }, "geometry": { "type": "Point", "coordinates": [ -0.147000862862275, 51.51846901977359 ] } },
{ "type": "Feature", "properties": { "PHASE": "Not applicable", "SchoolName": "Queen's College London", "SchoolType": "Other Independent School" }, "geometry": { "type": "Point", "coordinates": [ -0.147000862862275, 51.51846901977359 ] } },
{ "type": "Feature", "properties": { "PHASE": "Not applicable", "SchoolName": "Francis Holland School", "SchoolType": "Other Independent School" }, "geometry": { "type": "Point", "coordinates": [ -0.160328022279081, 51.524685766371697 ] } },
{ "type": "Feature", "properties": { "PHASE": "Not applicable", "SchoolName": "Westminster Abbey Choir School", "SchoolType": "Other Independent School" }, "geometry": { "type": "Point", "coordinates": [ -0.129633585252365, 51.49873355401342 ] } },
{ "type": "Feature", "properties": { "PHASE": "Not applicable", "SchoolName": "Westminster Abbey Choir School", "SchoolType": "Other Independent School" }, "geometry": { "type": "Point", "coordinates": [ -0.129633585252365, 51.49873355401342 ] } },
{ "type": "Feature", "properties": { "PHASE": "Not applicable", "SchoolName": "Eaton House School", "SchoolType": "Other Independent School" }, "geometry": { "type": "Point", "coordinates": [ -0.154941895413733, 51.494233522182789 ] } },
{ "type": "Feature", "properties": { "PHASE": "Not applicable", "SchoolName": "Francis Holland School", "SchoolType": "Other Independent School" }, "geometry": { "type": "Point", "coordinates": [ -0.153896522324339, 51.491582263379151 ] } },
{ "type": "Feature", "properties": { "PHASE": "Not applicable", "SchoolName": "Francis Holland School", "SchoolType": "Other Independent School" }, "geometry": { "type": "Point", "coordinates": [ -0.153896522324339, 51.491582263379151 ] } },
{ "type": "Feature", "properties": { "PHASE": "Not applicable", "SchoolName": "Westminster School", "SchoolType": "Other Independent School" }, "geometry": { "type": "Point", "coordinates": [ -0.127924966225785, 51.498238679794554 ] } },
{ "type": "Feature", "properties": { "PHASE": "Not applicable", "SchoolName": "The Hampshire School, Chelsea", "SchoolType": "Other Independent School" }, "geometry": { "type": "Point", "coordinates": [ -0.17240426957791, 51.486971237194055 ] } },
{ "type": "Feature", "properties": { "PHASE": "Not applicable", "SchoolName": "The Hampshire School, Chelsea", "SchoolType": "Other Independent School" }, "geometry": { "type": "Point", "coordinates": [ -0.17240426957791, 51.486971237194055 ] } },
{ "type": "Feature", "properties": { "PHASE": "Not applicable", "SchoolName": "Connaught House School", "SchoolType": "Other Independent School" }, "geometry": { "type": "Point", "coordinates": [ -0.162983489869665, 51.513864477480169 ] } },
{ "type": "Feature", "properties": { "PHASE": "Not applicable", "SchoolName": "Westminster Under School", "SchoolType": "Other Independent School" }, "geometry": { "type": "Point", "coordinates": [ -0.134139214018958, 51.491773159786284 ] } },
{ "type": "Feature", "properties": { "PHASE": "Not applicable", "SchoolName": "Westminster Under School", "SchoolType": "Other Independent School" }, "geometry": { "type": "Point", "coordinates": [ -0.134139214018958, 51.491773159786284 ] } },
{ "type": "Feature", "properties": { "PHASE": "Not applicable", "SchoolName": "Westminster Cathedral Choir School", "SchoolType": "Other Independent School" }, "geometry": { "type": "Point", "coordinates": [ -0.139765189268532, 51.496178952997859 ] } },
{ "type": "Feature", "properties": { "PHASE": "Not applicable", "SchoolName": "Westminster Cathedral Choir School", "SchoolType": "Other Independent School" }, "geometry": { "type": "Point", "coordinates": [ -0.139765189268532, 51.496178952997859 ] } },
{ "type": "Feature", "properties": { "PHASE": "Not applicable", "SchoolName": "The American School in London", "SchoolType": "Other Independent School" }, "geometry": { "type": "Point", "coordinates": [ -0.176961083451086, 51.534855109487161 ] } },
{ "type": "Feature", "properties": { "PHASE": "Not applicable", "SchoolName": "The American School in London", "SchoolType": "Other Independent School" }, "geometry": { "type": "Point", "coordinates": [ -0.176961083451086, 51.534855109487161 ] } },
{ "type": "Feature", "properties": { "PHASE": "Not applicable", "SchoolName": "St Christina's School", "SchoolType": "Other Independent School" }, "geometry": { "type": "Point", "coordinates": [ -0.164101988518116, 51.535868558342088 ] } },
{ "type": "Feature", "properties": { "PHASE": "Not applicable", "SchoolName": "International Community School", "SchoolType": "Other Independent School" }, "geometry": { "type": "Point", "coordinates": [ -0.15225924300602, 51.523875519188955 ] } },
{ "type": "Feature", "properties": { "PHASE": "Not applicable", "SchoolName": "International Community School", "SchoolType": "Other Independent School" }, "geometry": { "type": "Point", "coordinates": [ -0.15225924300602, 51.523875519188955 ] } },
{ "type": "Feature", "properties": { "PHASE": "Not applicable", "SchoolName": "The Sylvia Young Theatre School", "SchoolType": "Other Independent School" }, "geometry": { "type": "Point", "coordinates": [ -0.162649137819223, 51.517159479314678 ] } },
{ "type": "Feature", "properties": { "PHASE": "Not applicable", "SchoolName": "The Sylvia Young Theatre School", "SchoolType": "Other Independent School" }, "geometry": { "type": "Point", "coordinates": [ -0.162649137819223, 51.517159479314678 ] } },
{ "type": "Feature", "properties": { "PHASE": "Not applicable", "SchoolName": "Fairley House School", "SchoolType": "Other Independent Special School" }, "geometry": { "type": "Point", "coordinates": [ -0.131525574682957, 51.490517552242189 ] } },
{ "type": "Feature", "properties": { "PHASE": "Not applicable", "SchoolName": "Fairley House School", "SchoolType": "Other Independent Special School" }, "geometry": { "type": "Point", "coordinates": [ -0.131525574682957, 51.490517552242189 ] } },
{ "type": "Feature", "properties": { "PHASE": "Not applicable", "SchoolName": "St John's Wood Pre-Preparatory School", "SchoolType": "Other Independent School" }, "geometry": { "type": "Point", "coordinates": [ -0.168154768465143, 51.530815209654158 ] } },
{ "type": "Feature", "properties": { "PHASE": "Not applicable", "SchoolName": "Centre Academy London", "SchoolType": "Other Independent Special School" }, "geometry": { "type": "Point", "coordinates": [ -0.175008296940369, 51.461068371113207 ] } },
{ "type": "Feature", "properties": { "PHASE": "Not applicable", "SchoolName": "Centre Academy London", "SchoolType": "Other Independent Special School" }, "geometry": { "type": "Point", "coordinates": [ -0.175008296940369, 51.461068371113207 ] } },
{ "type": "Feature", "properties": { "PHASE": "Not applicable", "SchoolName": "Naima Jewish Preparatory School", "SchoolType": "Other Independent School" }, "geometry": { "type": "Point", "coordinates": [ -0.190088230274919, 51.534338972113311 ] } },
{ "type": "Feature", "properties": { "PHASE": "Not applicable", "SchoolName": "Abercorn School", "SchoolType": "Other Independent School" }, "geometry": { "type": "Point", "coordinates": [ -0.179742126535222, 51.532731116977857 ] } },
{ "type": "Feature", "properties": { "PHASE": "Not applicable", "SchoolName": "Abercorn School", "SchoolType": "Other Independent School" }, "geometry": { "type": "Point", "coordinates": [ -0.179742126535222, 51.532731116977857 ] } },
{ "type": "Feature", "properties": { "PHASE": "Not applicable", "SchoolName": "Eaton Square School", "SchoolType": "Other Independent School" }, "geometry": { "type": "Point", "coordinates": [ -0.142595581302817, 51.492824638707866 ] } },
{ "type": "Feature", "properties": { "PHASE": "Not applicable", "SchoolName": "Eaton Square School", "SchoolType": "Other Independent School" }, "geometry": { "type": "Point", "coordinates": [ -0.142595581302817, 51.492824638707866 ] } },
{ "type": "Feature", "properties": { "PHASE": "Not applicable", "SchoolName": "Bales College", "SchoolType": "Other Independent School" }, "geometry": { "type": "Point", "coordinates": [ -0.215362585016867, 51.528476457985825 ] } },
{ "type": "Feature", "properties": { "PHASE": "Not applicable", "SchoolName": "Mill Hill School Foundation", "SchoolType": "Other Independent School" }, "geometry": { "type": "Point", "coordinates": [ -0.230463503894777, 51.618979108982543 ] } },
{ "type": "Feature", "properties": { "PHASE": "Not applicable", "SchoolName": "Mill Hill School Foundation", "SchoolType": "Other Independent School" }, "geometry": { "type": "Point", "coordinates": [ -0.230463503894777, 51.618979108982543 ] } },
{ "type": "Feature", "properties": { "PHASE": "Not applicable", "SchoolName": "Hendon Preparatory School", "SchoolType": "Other Independent School" }, "geometry": { "type": "Point", "coordinates": [ -0.217195011652545, 51.591154048899732 ] } },
{ "type": "Feature", "properties": { "PHASE": "Not applicable", "SchoolName": "Hendon Preparatory School", "SchoolType": "Other Independent School" }, "geometry": { "type": "Point", "coordinates": [ -0.217195011652545, 51.591154048899732 ] } },
{ "type": "Feature", "properties": { "PHASE": "Not applicable", "SchoolName": "The King Alfred School", "SchoolType": "Other Independent School" }, "geometry": { "type": "Point", "coordinates": [ -0.185299873840647, 51.569533194988516 ] } },
{ "type": "Feature", "properties": { "PHASE": "Not applicable", "SchoolName": "The King Alfred School", "SchoolType": "Other Independent School" }, "geometry": { "type": "Point", "coordinates": [ -0.185299873840647, 51.569533194988516 ] } },
{ "type": "Feature", "properties": { "PHASE": "Not applicable", "SchoolName": "Lyonsdown School", "SchoolType": "Other Independent School" }, "geometry": { "type": "Point", "coordinates": [ -0.180145790796342, 51.646526623540119 ] } },
{ "type": "Feature", "properties": { "PHASE": "Not applicable", "SchoolName": "St Martha's School", "SchoolType": "Other Independent School" }, "geometry": { "type": "Point", "coordinates": [ -0.189177873972739, 51.663256963158922 ] } },
{ "type": "Feature", "properties": { "PHASE": "Not applicable", "SchoolName": "Annemount School", "SchoolType": "Other Independent School" }, "geometry": { "type": "Point", "coordinates": [ -0.175828458794777, 51.579763551147693 ] } },
{ "type": "Feature", "properties": { "PHASE": "Not applicable", "SchoolName": "Golders Hill School", "SchoolType": "Other Independent School" }, "geometry": { "type": "Point", "coordinates": [ -0.195738465427074, 51.574487081908664 ] } },
{ "type": "Feature", "properties": { "PHASE": "Not applicable", "SchoolName": "Goodwyn School", "SchoolType": "Other Independent School" }, "geometry": { "type": "Point", "coordinates": [ -0.236694607675954, 51.617355343465448 ] } },
{ "type": "Feature", "properties": { "PHASE": "Not applicable", "SchoolName": "Holland House School", "SchoolType": "Other Independent School" }, "geometry": { "type": "Point", "coordinates": [ -0.273947250231614, 51.621937464413186 ] } },
{ "type": "Feature", "properties": { "PHASE": "Not applicable", "SchoolName": "Kerem School", "SchoolType": "Other Independent School" }, "geometry": { "type": "Point", "coordinates": [ -0.173875261753986, 51.584202384046364 ] } },
{ "type": "Feature", "properties": { "PHASE": "Not applicable", "SchoolName": "St Martin's School", "SchoolType": "Other Independent School" }, "geometry": { "type": "Point", "coordinates": [ -0.247599072755229, 51.615891024448054 ] } },
{ "type": "Feature", "properties": { "PHASE": "Not applicable", "SchoolName": "Pardes House Grammar School", "SchoolType": "Other Independent School" }, "geometry": { "type": "Point", "coordinates": [ -0.197488994454938, 51.599179965279028 ] } },
{ "type": "Feature", "properties": { "PHASE": "Not applicable", "SchoolName": "Pardes House Grammar School", "SchoolType": "Other Independent School" }, "geometry": { "type": "Point", "coordinates": [ -0.197488994454938, 51.599179965279028 ] } },
{ "type": "Feature", "properties": { "PHASE": "Not applicable", "SchoolName": "Kisharon School", "SchoolType": "Other Independent Special School" }, "geometry": { "type": "Point", "coordinates": [ -0.198294107731703, 51.578833681515178 ] } },
{ "type": "Feature", "properties": { "PHASE": "Not applicable", "SchoolName": "Kisharon School", "SchoolType": "Other Independent Special School" }, "geometry": { "type": "Point", "coordinates": [ -0.198294107731703, 51.578833681515178 ] } },
{ "type": "Feature", "properties": { "PHASE": "Not applicable", "SchoolName": "Menorah Grammar School", "SchoolType": "Other Independent School" }, "geometry": { "type": "Point", "coordinates": [ -0.263950699833575, 51.607924060311682 ] } },
{ "type": "Feature", "properties": { "PHASE": "Not applicable", "SchoolName": "Beth Jacob Grammar School for Girls", "SchoolType": "Other Independent School" }, "geometry": { "type": "Point", "coordinates": [ -0.217857548818988, 51.587135554263803 ] } },
{ "type": "Feature", "properties": { "PHASE": "Not applicable", "SchoolName": "Dwight School London", "SchoolType": "Other Independent School" }, "geometry": { "type": "Point", "coordinates": [ -0.159437363336123, 51.613930412174525 ] } },
{ "type": "Feature", "properties": { "PHASE": "Not applicable", "SchoolName": "Dwight School London", "SchoolType": "Other Independent School" }, "geometry": { "type": "Point", "coordinates": [ -0.159437363336123, 51.613930412174525 ] } },
{ "type": "Feature", "properties": { "PHASE": "Not applicable", "SchoolName": "Brampton College", "SchoolType": "Other Independent School" }, "geometry": { "type": "Point", "coordinates": [ -0.222187147315752, 51.588639985794259 ] } },
{ "type": "Feature", "properties": { "PHASE": "Not applicable", "SchoolName": "West Lodge School", "SchoolType": "Other Independent School" }, "geometry": { "type": "Point", "coordinates": [ 0.101896856688495, 51.429155302909074 ] } },
{ "type": "Feature", "properties": { "PHASE": "Not applicable", "SchoolName": "Merton Court School", "SchoolType": "Other Independent School" }, "geometry": { "type": "Point", "coordinates": [ 0.112866150486902, 51.42369719575062 ] } },
{ "type": "Feature", "properties": { "PHASE": "Not applicable", "SchoolName": "Benedict House Preparatory School", "SchoolType": "Other Independent School" }, "geometry": { "type": "Point", "coordinates": [ 0.099288907281542, 51.428752400757972 ] } },
{ "type": "Feature", "properties": { "PHASE": "Not applicable", "SchoolName": "Buckingham College Preparatory School", "SchoolType": "Other Independent School" }, "geometry": { "type": "Point", "coordinates": [ -0.371280718277377, 51.579284583415564 ] } },
{ "type": "Feature", "properties": { "PHASE": "Not applicable", "SchoolName": "Buxlow Preparatory School", "SchoolType": "Other Independent School" }, "geometry": { "type": "Point", "coordinates": [ -0.296252026172504, 51.561745600766265 ] } },
{ "type": "Feature", "properties": { "PHASE": "Not applicable", "SchoolName": "Gower House School", "SchoolType": "Other Independent School" }, "geometry": { "type": "Point", "coordinates": [ -0.264391231852272, 51.565684916020146 ] } },
{ "type": "Feature", "properties": { "PHASE": "Not applicable", "SchoolName": "St Christopher's School", "SchoolType": "Other Independent School" }, "geometry": { "type": "Point", "coordinates": [ -0.285931479502629, 51.561883057356013 ] } },
{ "type": "Feature", "properties": { "PHASE": "Not applicable", "SchoolName": "St Nicholas School", "SchoolType": "Other Independent School" }, "geometry": { "type": "Point", "coordinates": [ -0.266292973393587, 51.567655361978048 ] } },
{ "type": "Feature", "properties": { "PHASE": "Not applicable", "SchoolName": "Ysgol Gymraeg Llundain, The Welsh School London", "SchoolType": "Other Independent School" }, "geometry": { "type": "Point", "coordinates": [ -0.335635078221696, 51.521108277821241 ] } },
{ "type": "Feature", "properties": { "PHASE": "Not applicable", "SchoolName": "Islamia School for Girls'", "SchoolType": "Other Independent School" }, "geometry": { "type": "Point", "coordinates": [ -0.208066421566839, 51.539524804036489 ] } },
{ "type": "Feature", "properties": { "PHASE": "Not applicable", "SchoolName": "Al-Sadiq and Al-Zahra Schools", "SchoolType": "Other Independent School" }, "geometry": { "type": "Point", "coordinates": [ -0.209219649084212, 51.539902107901362 ] } },
{ "type": "Feature", "properties": { "PHASE": "Not applicable", "SchoolName": "Al-Sadiq and Al-Zahra Schools", "SchoolType": "Other Independent School" }, "geometry": { "type": "Point", "coordinates": [ -0.209219649084212, 51.539902107901362 ] } },
{ "type": "Feature", "properties": { "PHASE": "Not applicable", "SchoolName": "The Swaminarayan School", "SchoolType": "Other Independent School" }, "geometry": { "type": "Point", "coordinates": [ -0.259816746320829, 51.548315963247695 ] } },
{ "type": "Feature", "properties": { "PHASE": "Not applicable", "SchoolName": "The Swaminarayan School", "SchoolType": "Other Independent School" }, "geometry": { "type": "Point", "coordinates": [ -0.259816746320829, 51.548315963247695 ] } },
{ "type": "Feature", "properties": { "PHASE": "Not applicable", "SchoolName": "Babington House School", "SchoolType": "Other Independent School" }, "geometry": { "type": "Point", "coordinates": [ 0.049453638898013, 51.418402381622506 ] } },
{ "type": "Feature", "properties": { "PHASE": "Not applicable", "SchoolName": "Babington House School", "SchoolType": "Other Independent School" }, "geometry": { "type": "Point", "coordinates": [ 0.049453638898013, 51.418402381622506 ] } },
{ "type": "Feature", "properties": { "PHASE": "Not applicable", "SchoolName": "Bickley Park School", "SchoolType": "Other Independent School" }, "geometry": { "type": "Point", "coordinates": [ 0.043914391497512, 51.401268790374715 ] } },
{ "type": "Feature", "properties": { "PHASE": "Not applicable", "SchoolName": "Bickley Park School", "SchoolType": "Other Independent School" }, "geometry": { "type": "Point", "coordinates": [ 0.043914391497512, 51.401268790374715 ] } },
{ "type": "Feature", "properties": { "PHASE": "Not applicable", "SchoolName": "Bishop Challoner School", "SchoolType": "Other Independent School" }, "geometry": { "type": "Point", "coordinates": [ -0.003716043767822, 51.406901080491743 ] } },
{ "type": "Feature", "properties": { "PHASE": "Not applicable", "SchoolName": "Bishop Challoner School", "SchoolType": "Other Independent School" }, "geometry": { "type": "Point", "coordinates": [ -0.003716043767822, 51.406901080491743 ] } },
{ "type": "Feature", "properties": { "PHASE": "Not applicable", "SchoolName": "Breaside Preparatory School", "SchoolType": "Other Independent School" }, "geometry": { "type": "Point", "coordinates": [ 0.03432518935159, 51.410023844643838 ] } },
{ "type": "Feature", "properties": { "PHASE": "Not applicable", "SchoolName": "Farringtons School", "SchoolType": "Other Independent School" }, "geometry": { "type": "Point", "coordinates": [ 0.08305024245187, 51.414266813012809 ] } },
{ "type": "Feature", "properties": { "PHASE": "Not applicable", "SchoolName": "Farringtons School", "SchoolType": "Other Independent School" }, "geometry": { "type": "Point", "coordinates": [ 0.08305024245187, 51.414266813012809 ] } },
{ "type": "Feature", "properties": { "PHASE": "Not applicable", "SchoolName": "St Christophers The Hall School", "SchoolType": "Other Independent School" }, "geometry": { "type": "Point", "coordinates": [ -0.013231349600177, 51.406649123000832 ] } },
{ "type": "Feature", "properties": { "PHASE": "Not applicable", "SchoolName": "St David's College", "SchoolType": "Other Independent School" }, "geometry": { "type": "Point", "coordinates": [ -0.019643047092803, 51.38304361701708 ] } },
{ "type": "Feature", "properties": { "PHASE": "Not applicable", "SchoolName": "Bromley High School", "SchoolType": "Other Independent School" }, "geometry": { "type": "Point", "coordinates": [ 0.057089644901475, 51.395309754254548 ] } },
{ "type": "Feature", "properties": { "PHASE": "Not applicable", "SchoolName": "Bromley High School", "SchoolType": "Other Independent School" }, "geometry": { "type": "Point", "coordinates": [ 0.057089644901475, 51.395309754254548 ] } },
{ "type": "Feature", "properties": { "PHASE": "Not applicable", "SchoolName": "Eltham College", "SchoolType": "Other Independent School" }, "geometry": { "type": "Point", "coordinates": [ 0.038631878113645, 51.437979684257989 ] } },
{ "type": "Feature", "properties": { "PHASE": "Not applicable", "SchoolName": "Eltham College", "SchoolType": "Other Independent School" }, "geometry": { "type": "Point", "coordinates": [ 0.038631878113645, 51.437979684257989 ] } },
{ "type": "Feature", "properties": { "PHASE": "Not applicable", "SchoolName": "Ashgrove School Ltd", "SchoolType": "Other Independent School" }, "geometry": { "type": "Point", "coordinates": [ 0.025292358776842, 51.406718061127229 ] } },
{ "type": "Feature", "properties": { "PHASE": "Not applicable", "SchoolName": "Darul Uloom London", "SchoolType": "Other Independent School" }, "geometry": { "type": "Point", "coordinates": [ 0.084628306623286, 51.417026553396035 ] } },
{ "type": "Feature", "properties": { "PHASE": "Not applicable", "SchoolName": "Cumnor House School", "SchoolType": "Other Independent School" }, "geometry": { "type": "Point", "coordinates": [ -0.108203094661738, 51.348419131693774 ] } },
{ "type": "Feature", "properties": { "PHASE": "Not applicable", "SchoolName": "Cumnor House School", "SchoolType": "Other Independent School" }, "geometry": { "type": "Point", "coordinates": [ -0.108203094661738, 51.348419131693774 ] } },
{ "type": "Feature", "properties": { "PHASE": "Not applicable", "SchoolName": "Elmhurst School", "SchoolType": "Other Independent School" }, "geometry": { "type": "Point", "coordinates": [ -0.092529200651201, 51.362760215789912 ] } },
{ "type": "Feature", "properties": { "PHASE": "Not applicable", "SchoolName": "Virgo Fidelis Preparatory School", "SchoolType": "Other Independent School" }, "geometry": { "type": "Point", "coordinates": [ -0.094513634809362, 51.421523993903691 ] } },
{ "type": "Feature", "properties": { "PHASE": "Not applicable", "SchoolName": "Laleham Lea School", "SchoolType": "Other Independent School" }, "geometry": { "type": "Point", "coordinates": [ -0.132566926913143, 51.343962997175552 ] } },
{ "type": "Feature", "properties": { "PHASE": "Not applicable", "SchoolName": "Royal Russell School", "SchoolType": "Other Independent School" }, "geometry": { "type": "Point", "coordinates": [ -0.065725624936487, 51.357617475810237 ] } },
{ "type": "Feature", "properties": { "PHASE": "Not applicable", "SchoolName": "Royal Russell School", "SchoolType": "Other Independent School" }, "geometry": { "type": "Point", "coordinates": [ -0.065725624936487, 51.357617475810237 ] } },
{ "type": "Feature", "properties": { "PHASE": "Not applicable", "SchoolName": "Whitgift School", "SchoolType": "Other Independent School" }, "geometry": { "type": "Point", "coordinates": [ -0.101875110272126, 51.36011527112327 ] } },
{ "type": "Feature", "properties": { "PHASE": "Not applicable", "SchoolName": "Whitgift School", "SchoolType": "Other Independent School" }, "geometry": { "type": "Point", "coordinates": [ -0.101875110272126, 51.36011527112327 ] } },
{ "type": "Feature", "properties": { "PHASE": "Not applicable", "SchoolName": "Reedham Park School Limited", "SchoolType": "Other Independent School" }, "geometry": { "type": "Point", "coordinates": [ -0.11918828774234, 51.325277775029527 ] } },
{ "type": "Feature", "properties": { "PHASE": "Not applicable", "SchoolName": "St David's School", "SchoolType": "Other Independent School" }, "geometry": { "type": "Point", "coordinates": [ -0.123086153218611, 51.337732353262055 ] } },
{ "type": "Feature", "properties": { "PHASE": "Not applicable", "SchoolName": "Trinity School", "SchoolType": "Other Independent School" }, "geometry": { "type": "Point", "coordinates": [ -0.060118731700157, 51.375078703273473 ] } },
{ "type": "Feature", "properties": { "PHASE": "Not applicable", "SchoolName": "Trinity School", "SchoolType": "Other Independent School" }, "geometry": { "type": "Point", "coordinates": [ -0.060118731700157, 51.375078703273473 ] } },
{ "type": "Feature", "properties": { "PHASE": "Not applicable", "SchoolName": "Rutherford School", "SchoolType": "Other Independent Special School" }, "geometry": { "type": "Point", "coordinates": [ -0.08026190055605, 51.360005877467266 ] } },
{ "type": "Feature", "properties": { "PHASE": "Not applicable", "SchoolName": "Rutherford School", "SchoolType": "Other Independent Special School" }, "geometry": { "type": "Point", "coordinates": [ -0.08026190055605, 51.360005877467266 ] } },
{ "type": "Feature", "properties": { "PHASE": "Not applicable", "SchoolName": "Croydon High School", "SchoolType": "Other Independent School" }, "geometry": { "type": "Point", "coordinates": [ -0.061719384907719, 51.341256262551831 ] } },
{ "type": "Feature", "properties": { "PHASE": "Not applicable", "SchoolName": "Croydon High School", "SchoolType": "Other Independent School" }, "geometry": { "type": "Point", "coordinates": [ -0.061719384907719, 51.341256262551831 ] } },
{ "type": "Feature", "properties": { "PHASE": "Not applicable", "SchoolName": "Old Palace of John Whitgift School", "SchoolType": "Other Independent School" }, "geometry": { "type": "Point", "coordinates": [ -0.105523652832851, 51.37229655596046 ] } },
{ "type": "Feature", "properties": { "PHASE": "Not applicable", "SchoolName": "Old Palace of John Whitgift School", "SchoolType": "Other Independent School" }, "geometry": { "type": "Point", "coordinates": [ -0.105523652832851, 51.37229655596046 ] } },
{ "type": "Feature", "properties": { "PHASE": "Not applicable", "SchoolName": "Durston House School", "SchoolType": "Other Independent School" }, "geometry": { "type": "Point", "coordinates": [ -0.306719053929249, 51.516863733461065 ] } },
{ "type": "Feature", "properties": { "PHASE": "Not applicable", "SchoolName": "Durston House School", "SchoolType": "Other Independent School" }, "geometry": { "type": "Point", "coordinates": [ -0.306719053929249, 51.516863733461065 ] } },
{ "type": "Feature", "properties": { "PHASE": "Not applicable", "SchoolName": "Harvington Prep School", "SchoolType": "Other Independent School" }, "geometry": { "type": "Point", "coordinates": [ -0.307185350528632, 51.516726586362466 ] } },
{ "type": "Feature", "properties": { "PHASE": "Not applicable", "SchoolName": "Harvington Prep School", "SchoolType": "Other Independent School" }, "geometry": { "type": "Point", "coordinates": [ -0.307185350528632, 51.516726586362466 ] } },
{ "type": "Feature", "properties": { "PHASE": "Not applicable", "SchoolName": "St Augustine's Priory", "SchoolType": "Other Independent School" }, "geometry": { "type": "Point", "coordinates": [ -0.292653823403659, 51.523754805977951 ] } },
{ "type": "Feature", "properties": { "PHASE": "Not applicable", "SchoolName": "St Augustine's Priory", "SchoolType": "Other Independent School" }, "geometry": { "type": "Point", "coordinates": [ -0.292653823403659, 51.523754805977951 ] } },
{ "type": "Feature", "properties": { "PHASE": "Not applicable", "SchoolName": "St Benedict's School", "SchoolType": "Other Independent School" }, "geometry": { "type": "Point", "coordinates": [ -0.306829376029288, 51.52088489019971 ] } },
{ "type": "Feature", "properties": { "PHASE": "Not applicable", "SchoolName": "St Benedict's School", "SchoolType": "Other Independent School" }, "geometry": { "type": "Point", "coordinates": [ -0.306829376029288, 51.52088489019971 ] } },
{ "type": "Feature", "properties": { "PHASE": "Not applicable", "SchoolName": "Barbara Speake Stage School", "SchoolType": "Other Independent School" }, "geometry": { "type": "Point", "coordinates": [ -0.255291125547598, 51.512405235059383 ] } },
{ "type": "Feature", "properties": { "PHASE": "Not applicable", "SchoolName": "Barbara Speake Stage School", "SchoolType": "Other Independent School" }, "geometry": { "type": "Point", "coordinates": [ -0.255291125547598, 51.512405235059383 ] } },
{ "type": "Feature", "properties": { "PHASE": "Not applicable", "SchoolName": "The Falcons School for Girls", "SchoolType": "Other Independent School" }, "geometry": { "type": "Point", "coordinates": [ -0.233907126366186, 51.462006332475148 ] } },
{ "type": "Feature", "properties": { "PHASE": "Not applicable", "SchoolName": "The Sybil Elgar School", "SchoolType": "Other Independent Special School" }, "geometry": { "type": "Point", "coordinates": [ -0.375100381814926, 51.500062154286759 ] } },
{ "type": "Feature", "properties": { "PHASE": "Not applicable", "SchoolName": "The Sybil Elgar School", "SchoolType": "Other Independent Special School" }, "geometry": { "type": "Point", "coordinates": [ -0.375100381814926, 51.500062154286759 ] } },
{ "type": "Feature", "properties": { "PHASE": "Not applicable", "SchoolName": "Notting Hill and Ealing High School", "SchoolType": "Other Independent School" }, "geometry": { "type": "Point", "coordinates": [ -0.316074190146462, 51.52152152898082 ] } },
{ "type": "Feature", "properties": { "PHASE": "Not applicable", "SchoolName": "Notting Hill and Ealing High School", "SchoolType": "Other Independent School" }, "geometry": { "type": "Point", "coordinates": [ -0.316074190146462, 51.52152152898082 ] } },
{ "type": "Feature", "properties": { "PHASE": "Not applicable", "SchoolName": "Clifton Lodge School", "SchoolType": "Other Independent School" }, "geometry": { "type": "Point", "coordinates": [ -0.308080678914435, 51.511622872805873 ] } },
{ "type": "Feature", "properties": { "PHASE": "Not applicable", "SchoolName": "Clifton Lodge School", "SchoolType": "Other Independent School" }, "geometry": { "type": "Point", "coordinates": [ -0.308080678914435, 51.511622872805873 ] } },
{ "type": "Feature", "properties": { "PHASE": "Not applicable", "SchoolName": "King Fahad Academy", "SchoolType": "Other Independent School" }, "geometry": { "type": "Point", "coordinates": [ -0.251063131001041, 51.511793735445778 ] } },
{ "type": "Feature", "properties": { "PHASE": "Not applicable", "SchoolName": "King Fahad Academy", "SchoolType": "Other Independent School" }, "geometry": { "type": "Point", "coordinates": [ -0.251063131001041, 51.511793735445778 ] } },
{ "type": "Feature", "properties": { "PHASE": "Not applicable", "SchoolName": "The Japanese School", "SchoolType": "Other Independent School" }, "geometry": { "type": "Point", "coordinates": [ -0.280236051905163, 51.513591918540897 ] } },
{ "type": "Feature", "properties": { "PHASE": "Not applicable", "SchoolName": "The Japanese School", "SchoolType": "Other Independent School" }, "geometry": { "type": "Point", "coordinates": [ -0.280236051905163, 51.513591918540897 ] } },
{ "type": "Feature", "properties": { "PHASE": "Not applicable", "SchoolName": "Greek Secondary School of London", "SchoolType": "Other Independent School" }, "geometry": { "type": "Point", "coordinates": [ -0.114094916438202, 51.601106946751948 ] } },
{ "type": "Feature", "properties": { "PHASE": "Not applicable", "SchoolName": "Orchard House School", "SchoolType": "Other Independent School" }, "geometry": { "type": "Point", "coordinates": [ -0.25773026174977, 51.497199394343973 ] } },
{ "type": "Feature", "properties": { "PHASE": "Not applicable", "SchoolName": "Avenue House School", "SchoolType": "Other Independent School" }, "geometry": { "type": "Point", "coordinates": [ -0.31905623127542, 51.516870315214504 ] } },
{ "type": "Feature", "properties": { "PHASE": "Not applicable", "SchoolName": "The Eden School (SDA)", "SchoolType": "Other Independent School" }, "geometry": { "type": "Point", "coordinates": [ -0.280680544595962, 51.495658671481621 ] } },
{ "type": "Feature", "properties": { "PHASE": "Not applicable", "SchoolName": "The Eden School (SDA)", "SchoolType": "Other Independent School" }, "geometry": { "type": "Point", "coordinates": [ -0.280680544595962, 51.495658671481621 ] } },
{ "type": "Feature", "properties": { "PHASE": "Not applicable", "SchoolName": "Keble Preparatory School", "SchoolType": "Other Independent School" }, "geometry": { "type": "Point", "coordinates": [ -0.103139594137385, 51.635641090225057 ] } },
{ "type": "Feature", "properties": { "PHASE": "Not applicable", "SchoolName": "Keble Preparatory School", "SchoolType": "Other Independent School" }, "geometry": { "type": "Point", "coordinates": [ -0.103139594137385, 51.635641090225057 ] } },
{ "type": "Feature", "properties": { "PHASE": "Not applicable", "SchoolName": "Palmers Green High School", "SchoolType": "Other Independent School" }, "geometry": { "type": "Point", "coordinates": [ -0.104215509048129, 51.626126540183236 ] } },
{ "type": "Feature", "properties": { "PHASE": "Not applicable", "SchoolName": "Palmers Green High School", "SchoolType": "Other Independent School" }, "geometry": { "type": "Point", "coordinates": [ -0.104215509048129, 51.626126540183236 ] } },
{ "type": "Feature", "properties": { "PHASE": "Not applicable", "SchoolName": "Grange Park Preparatory School", "SchoolType": "Other Independent School" }, "geometry": { "type": "Point", "coordinates": [ -0.095569602629223, 51.640761105907089 ] } },
{ "type": "Feature", "properties": { "PHASE": "Not applicable", "SchoolName": "Salcombe School", "SchoolType": "Other Independent School" }, "geometry": { "type": "Point", "coordinates": [ -0.127042200779223, 51.635970871162954 ] } },
{ "type": "Feature", "properties": { "PHASE": "Not applicable", "SchoolName": "Vita Et Pax School", "SchoolType": "Other Independent School" }, "geometry": { "type": "Point", "coordinates": [ -0.137764727369093, 51.644792052442526 ] } },
{ "type": "Feature", "properties": { "PHASE": "Not applicable", "SchoolName": "St John's Preparatory and Senior School", "SchoolType": "Other Independent School" }, "geometry": { "type": "Point", "coordinates": [ -0.158949066097128, 51.684862971608048 ] } },
{ "type": "Feature", "properties": { "PHASE": "Not applicable", "SchoolName": "St John's Preparatory and Senior School", "SchoolType": "Other Independent School" }, "geometry": { "type": "Point", "coordinates": [ -0.158949066097128, 51.684862971608048 ] } },
{ "type": "Feature", "properties": { "PHASE": "Not applicable", "SchoolName": "Channing School", "SchoolType": "Other Independent School" }, "geometry": { "type": "Point", "coordinates": [ -0.144189870844874, 51.570230127801217 ] } },
{ "type": "Feature", "properties": { "PHASE": "Not applicable", "SchoolName": "Channing School", "SchoolType": "Other Independent School" }, "geometry": { "type": "Point", "coordinates": [ -0.144189870844874, 51.570230127801217 ] } },
{ "type": "Feature", "properties": { "PHASE": "Not applicable", "SchoolName": "Highgate School", "SchoolType": "Other Independent School" }, "geometry": { "type": "Point", "coordinates": [ -0.149555543969544, 51.572419085631815 ] } },
{ "type": "Feature", "properties": { "PHASE": "Not applicable", "SchoolName": "Highgate School", "SchoolType": "Other Independent School" }, "geometry": { "type": "Point", "coordinates": [ -0.149555543969544, 51.572419085631815 ] } },
{ "type": "Feature", "properties": { "PHASE": "Not applicable", "SchoolName": "Norfolk House School", "SchoolType": "Other Independent School" }, "geometry": { "type": "Point", "coordinates": [ -0.14280944052755, 51.594892443296793 ] } },
{ "type": "Feature", "properties": { "PHASE": "Not applicable", "SchoolName": "Sunrise Primary School", "SchoolType": "Other Independent School" }, "geometry": { "type": "Point", "coordinates": [ -0.065586978955533, 51.60698094277064 ] } },
{ "type": "Feature", "properties": { "PHASE": "Not applicable", "SchoolName": "North London Rudolf Steiner School", "SchoolType": "Other Independent School" }, "geometry": { "type": "Point", "coordinates": [ -0.120019617452363, 51.5880640702226 ] } },
{ "type": "Feature", "properties": { "PHASE": "Not applicable", "SchoolName": "Beis Chinuch Lebonos Girls School", "SchoolType": "Other Independent School" }, "geometry": { "type": "Point", "coordinates": [ -0.091256508879163, 51.571008692546947 ] } },
{ "type": "Feature", "properties": { "PHASE": "Not applicable", "SchoolName": "Beis Chinuch Lebonos Girls School", "SchoolType": "Other Independent School" }, "geometry": { "type": "Point", "coordinates": [ -0.091256508879163, 51.571008692546947 ] } },
{ "type": "Feature", "properties": { "PHASE": "Not applicable", "SchoolName": "The London School for Children With Cerebral Palsy", "SchoolType": "Other Independent Special School" }, "geometry": { "type": "Point", "coordinates": [ -0.155710001694038, 51.602190840896299 ] } },
{ "type": "Feature", "properties": { "PHASE": "Not applicable", "SchoolName": "Excelsior College", "SchoolType": "Other Independent School" }, "geometry": { "type": "Point", "coordinates": [ -0.077739686359778, 51.605786760563738 ] } },
{ "type": "Feature", "properties": { "PHASE": "Not applicable", "SchoolName": "Harrow School", "SchoolType": "Other Independent School" }, "geometry": { "type": "Point", "coordinates": [ -0.337417375271248, 51.572290426626012 ] } },
{ "type": "Feature", "properties": { "PHASE": "Not applicable", "SchoolName": "The John Lyon School", "SchoolType": "Other Independent School" }, "geometry": { "type": "Point", "coordinates": [ -0.343678091117445, 51.571156012144947 ] } },
{ "type": "Feature", "properties": { "PHASE": "Not applicable", "SchoolName": "Orley Farm School", "SchoolType": "Other Independent School" }, "geometry": { "type": "Point", "coordinates": [ -0.34371630455134, 51.562560000021783 ] } },
{ "type": "Feature", "properties": { "PHASE": "Not applicable", "SchoolName": "Orley Farm School", "SchoolType": "Other Independent School" }, "geometry": { "type": "Point", "coordinates": [ -0.34371630455134, 51.562560000021783 ] } },
{ "type": "Feature", "properties": { "PHASE": "Not applicable", "SchoolName": "Quainton Hall School", "SchoolType": "Other Independent School" }, "geometry": { "type": "Point", "coordinates": [ -0.340653745626843, 51.584862358077743 ] } },
{ "type": "Feature", "properties": { "PHASE": "Not applicable", "SchoolName": "Quainton Hall School", "SchoolType": "Other Independent School" }, "geometry": { "type": "Point", "coordinates": [ -0.340653745626843, 51.584862358077743 ] } },
{ "type": "Feature", "properties": { "PHASE": "Not applicable", "SchoolName": "Alpha Preparatory School", "SchoolType": "Other Independent School" }, "geometry": { "type": "Point", "coordinates": [ -0.335053131614324, 51.585259632286061 ] } },
{ "type": "Feature", "properties": { "PHASE": "Not applicable", "SchoolName": "Reddiford School", "SchoolType": "Other Independent School" }, "geometry": { "type": "Point", "coordinates": [ -0.378349660062814, 51.590721564336867 ] } },
{ "type": "Feature", "properties": { "PHASE": "Not applicable", "SchoolName": "Roxeth Mead School", "SchoolType": "Other Independent School" }, "geometry": { "type": "Point", "coordinates": [ -0.345336822204751, 51.569983447662999 ] } },
{ "type": "Feature", "properties": { "PHASE": "Not applicable", "SchoolName": "Purcell School", "SchoolType": "Other Independent School" }, "geometry": { "type": "Point", "coordinates": [ -0.367276945920702, 51.660355770215695 ] } },
{ "type": "Feature", "properties": { "PHASE": "Not applicable", "SchoolName": "Purcell School", "SchoolType": "Other Independent School" }, "geometry": { "type": "Point", "coordinates": [ -0.367276945920702, 51.660355770215695 ] } },
{ "type": "Feature", "properties": { "PHASE": "Not applicable", "SchoolName": "North London Collegiate School", "SchoolType": "Other Independent School" }, "geometry": { "type": "Point", "coordinates": [ -0.294850849263714, 51.614230880656393 ] } },
{ "type": "Feature", "properties": { "PHASE": "Not applicable", "SchoolName": "North London Collegiate School", "SchoolType": "Other Independent School" }, "geometry": { "type": "Point", "coordinates": [ -0.294850849263714, 51.614230880656393 ] } },
{ "type": "Feature", "properties": { "PHASE": "Not applicable", "SchoolName": "Gidea Park College", "SchoolType": "Other Independent School" }, "geometry": { "type": "Point", "coordinates": [ 0.199627620838354, 51.586051136693754 ] } },
{ "type": "Feature", "properties": { "PHASE": "Not applicable", "SchoolName": "Goodrington School", "SchoolType": "Other Independent School" }, "geometry": { "type": "Point", "coordinates": [ 0.216053396656885, 51.57087687099564 ] } },
{ "type": "Feature", "properties": { "PHASE": "Not applicable", "SchoolName": "St Mary's Hare Park School", "SchoolType": "Other Independent School" }, "geometry": { "type": "Point", "coordinates": [ 0.208257240801183, 51.58539444799159 ] } },
{ "type": "Feature", "properties": { "PHASE": "Not applicable", "SchoolName": "Raphael Independent School", "SchoolType": "Other Independent School" }, "geometry": { "type": "Point", "coordinates": [ 0.192782729664587, 51.570711570627594 ] } },
{ "type": "Feature", "properties": { "PHASE": "Not applicable", "SchoolName": "Raphael Independent School", "SchoolType": "Other Independent School" }, "geometry": { "type": "Point", "coordinates": [ 0.192782729664587, 51.570711570627594 ] } },
{ "type": "Feature", "properties": { "PHASE": "Not applicable", "SchoolName": "Immanuel School", "SchoolType": "Other Independent School" }, "geometry": { "type": "Point", "coordinates": [ 0.17754972969381, 51.608872942335324 ] } },
{ "type": "Feature", "properties": { "PHASE": "Not applicable", "SchoolName": "Immanuel School", "SchoolType": "Other Independent School" }, "geometry": { "type": "Point", "coordinates": [ 0.17754972969381, 51.608872942335324 ] } },
{ "type": "Feature", "properties": { "PHASE": "Not applicable", "SchoolName": "Oakfields Montessori School", "SchoolType": "Other Independent School" }, "geometry": { "type": "Point", "coordinates": [ 0.248465609237862, 51.541338892646237 ] } },
{ "type": "Feature", "properties": { "PHASE": "Not applicable", "SchoolName": "Northwood College for Girls", "SchoolType": "Other Independent School" }, "geometry": { "type": "Point", "coordinates": [ -0.427998563957473, 51.609866697085089 ] } },
{ "type": "Feature", "properties": { "PHASE": "Not applicable", "SchoolName": "Northwood College for Girls", "SchoolType": "Other Independent School" }, "geometry": { "type": "Point", "coordinates": [ -0.427998563957473, 51.609866697085089 ] } },
{ "type": "Feature", "properties": { "PHASE": "Not applicable", "SchoolName": "St Helen's School", "SchoolType": "Other Independent School" }, "geometry": { "type": "Point", "coordinates": [ -0.422554550553528, 51.613597319317911 ] } },
{ "type": "Feature", "properties": { "PHASE": "Not applicable", "SchoolName": "St Helen's School", "SchoolType": "Other Independent School" }, "geometry": { "type": "Point", "coordinates": [ -0.422554550553528, 51.613597319317911 ] } },
{ "type": "Feature", "properties": { "PHASE": "Not applicable", "SchoolName": "St Martin's School", "SchoolType": "Other Independent School" }, "geometry": { "type": "Point", "coordinates": [ -0.433523206548096, 51.616774501995224 ] } },
{ "type": "Feature", "properties": { "PHASE": "Not applicable", "SchoolName": "St Martin's School", "SchoolType": "Other Independent School" }, "geometry": { "type": "Point", "coordinates": [ -0.433523206548096, 51.616774501995224 ] } },
{ "type": "Feature", "properties": { "PHASE": "Not applicable", "SchoolName": "The Hall School", "SchoolType": "Other Independent School" }, "geometry": { "type": "Point", "coordinates": [ -0.433620052122245, 51.612702395163893 ] } },
{ "type": "Feature", "properties": { "PHASE": "Not applicable", "SchoolName": "St Helen's College", "SchoolType": "Other Independent School" }, "geometry": { "type": "Point", "coordinates": [ -0.45125474292085, 51.545198973248922 ] } },
{ "type": "Feature", "properties": { "PHASE": "Not applicable", "SchoolName": "St John's School", "SchoolType": "Other Independent School" }, "geometry": { "type": "Point", "coordinates": [ -0.404802541575424, 51.61198167249519 ] } },
{ "type": "Feature", "properties": { "PHASE": "Not applicable", "SchoolName": "St John's School", "SchoolType": "Other Independent School" }, "geometry": { "type": "Point", "coordinates": [ -0.404802541575424, 51.61198167249519 ] } },
{ "type": "Feature", "properties": { "PHASE": "Not applicable", "SchoolName": "ACS Hillingdon International School", "SchoolType": "Other Independent School" }, "geometry": { "type": "Point", "coordinates": [ -0.460621698272241, 51.543272027082502 ] } },
{ "type": "Feature", "properties": { "PHASE": "Not applicable", "SchoolName": "ACS Hillingdon International School", "SchoolType": "Other Independent School" }, "geometry": { "type": "Point", "coordinates": [ -0.460621698272241, 51.543272027082502 ] } },
{ "type": "Feature", "properties": { "PHASE": "Not applicable", "SchoolName": "Ashton House School", "SchoolType": "Other Independent School" }, "geometry": { "type": "Point", "coordinates": [ -0.346493863070469, 51.477577234663961 ] } },
{ "type": "Feature", "properties": { "PHASE": "Not applicable", "SchoolName": "Chiswick and Bedford Park Preparatory School", "SchoolType": "Other Independent School" }, "geometry": { "type": "Point", "coordinates": [ -0.254453242627582, 51.496620116306858 ] } },
{ "type": "Feature", "properties": { "PHASE": "Not applicable", "SchoolName": "International School of London", "SchoolType": "Other Independent School" }, "geometry": { "type": "Point", "coordinates": [ -0.282938039651035, 51.495772675259282 ] } },
{ "type": "Feature", "properties": { "PHASE": "Not applicable", "SchoolName": "International School of London", "SchoolType": "Other Independent School" }, "geometry": { "type": "Point", "coordinates": [ -0.282938039651035, 51.495772675259282 ] } },
{ "type": "Feature", "properties": { "PHASE": "Not applicable", "SchoolName": "Arts Educational School", "SchoolType": "Other Independent School" }, "geometry": { "type": "Point", "coordinates": [ -0.252446786270212, 51.495969760270654 ] } },
{ "type": "Feature", "properties": { "PHASE": "Not applicable", "SchoolName": "Holy Cross Preparatory School", "SchoolType": "Other Independent School" },